Unnamed: 0,personDescription,min._yearly_income_info,data_customer_order,grossWeight,netWeight,is_recyclable?_field,additional_features_in_market_measure,PN,SK,store_sales,SC,GA,Store Area,field_frozen_area,field_meat_area,metric_cost,customer_city,CUS56,customer_lat,var_customer_lng,field_seller_city,seller_state,seller_lat_metric,seller_lng,REV54
mc_ID_11745,Single Male with three children + education: bachelors degree working as professional,50 Thousand,"Bathroom Products from Health and Hygiene department, Ordered Brand : Hilltop",19.0421,14.6813,no,"['Ready Food', 'Bar For Salad', 'Florist', 'Coffee Bar']",Roller Savings (High) ,Gourmet,4.47 M,1.3857 M,1566.86,2211.99,385.45,257.63,637.6939,caMpo ERE,sC,-26.39359270318612,-53.08265733215715,maringa,pr,-23.437975269077903,-51.91385959802448,1.0
mc_ID_11747,"Married Female with one child, education: partial high school working as manual",10K+,"Vegetables from Frozen Foods department, Ordered Brand : Golden",21.2225,,yes,['Coffee Bar'],Discount Frenzy,,8.88 M,4.3512 M,1237.2,1970.94,440.92,293.95,val: 760.4943,SAO PAULO,$P,-23.74981810254469,-46.69876375197105,BRUSQUE,SC,-27.14105704919435,-48.96146112936535,3.0
mc_ID_11749,"Single Male with five children, education: partial high school working as skilled manual",10K+,"Dairy from Dairy department, Ordered Brand : Gorilla",,14.6813,yes,[],Price Winners,Supermarket,17.95 M,7.3595 M,1623.48,2195.29,,226.24,586.7537, belo horizonte,mG,amount: -19.91690663641869,-44.00258750903103,sao paulo,sp,-23.59798552039933,-46.55547278711988,3.0
mc_ID_11750,"Single Female with one child, education: partial high school working as skilled manual",10K+,"Pizza from Frozen Foods department, Ordered Brand : Imagine",23.5482,22.0946,yes,"['Bar For Salad', 'Ready Food']",Three for One,Supermarket,8.1 M,3.726 M,2448.37,3232.19,470.27,,656.2604,curitiba,	PR,-25.43910656148645,-49.23689875714125,SaO pAUlo,SP,-23.615020791563268,measure: -46.47934165652957,amount: 1.0
mc_ID_11752,"Marrie Male with No children, education: High School degree working as skilled manual",30 Thousand,"Baking Goods from Baking Goods department, Ordered Brand : Super",,11.4688,no,['Coffee Bar'],,Supermarket,€3.4M,1.9404 M,1237.21,1966.8,440.92,292.73,measure: 364.1649,Barueri,5P,-23.505089673519063,-46.809600405339054,5ao paulo,SP,-23.485253731057767,-46.73312974854289,4.0
mc_ID_11756,"Single Male with three children, education: partial HS working as manual",10K+,"Kitchen Products from Household department, Ordered Brand : Denny",,-15.6988,yes,['Florist'],,Supermarket,11.4 M,3.648 M,1320.15,2193.89,523.32,347.33,val: 564.2647,Santo aÑDRe,SP,-23.726298153211346,-46.48453208436728,4raras,SP,-22.357155798358097,-47.4052921218512,1.0
mc_ID_11759,Married Female with one child; education: high school degree working as manual,30K+,"Baking Goods from Baking Goods department, Ordered Brand : Landslide",measure: 23.1121,val: nan,yes,"['Video Store', 'Bar For Salad', 'Florist', 'Ready Food', 'Coffee Bar']",Save It (Sale),Gourmet,€3.6M,1.3268 M,1425.63,2203.69,465.54,311.23,427.7617,sao bernardo do campo ,$p,-23.69676708964741,data: -46.571862503895126,hortolandia,SP,-22.887514996879027,-47.19573904628551,1.0
mc_ID_11760,"Single Female with four children, education: bachelors degree working as professional",70 Thousand,"Bathroom Products from Health and Hygiene department, Ordered Brand : Consolidated",-23.9843,19.6235,yes,"['Florist', 'Coffee Bar', 'Ready Food', 'Bar For Salad', 'Video Store']",Dimes Off,deluxe,3.78 M,1.2096 M,,2844.15,481.98,319.78,550.6144,agua comprida,MG,data: -20.05738292084917,-48.11061678343788,sao paulo,sp,measure: -23.65111484251016,-46.75521082321932,4.0
mc_ID_11761,Married Male with No kidren; education: HS degree working as professional,Income: 150K+,"Fruit from Produce department, Ordered Brand : Hermanos",30.9615,27.909,no,"['Bar For Salad', 'Ready Food', 'Florist', 'Video Store', 'Coffee Bar']",Saving Days,Gourmet,6.68 M,2.004 M,1424.85,2205.48,465.54,310.93,R$1930.42,	porTo segURO,BA,data: -16.44446967266491,-39.06166956260506,franca ,SP,-20.50234199999999,-47.4215895,1.0
mc_ID_11762,"Single Male with one child, education: graduate degree working as management",90K+,"Bathroom Products from Household department, Ordered Brand : Cormorant",13.1114,10.2042,yes,"['Bar For Salad', 'Florist', 'Coffee Bar', 'Ready Food']",Dollar Days,dElUxE,7.02 M,2.7378 M,,3145.51,654.13,436.09,725.9763,paraiso do norte,PR,-23.283332085984306,-52.60102263475902,araguari,Mg,-18.643784093954583,-48.20804381879092,5.0
mc_ID_11763,"Single Female with five children, education: high school degree working as manual",30K+,"Baking Goods from Baking Goods department, Ordered Brand : CDR",26.0193,24.4204,no,"['Florist', 'Bar For Salad', 'Ready Food', 'Video Store', 'Coffee Bar']",Two for One,Deluxe_,4.56 M,1.5048 M,,2843.16,481.98,321.26,358.9349,SALVADOR,BA,-12.89000245694849,-38.40072523449346,ponte nova,MG,-20.415339248383304,-42.89153741877715,measure: 3.0
mc_ID_11765,"Married Female with two kids, education: high school degree working as skilled manual",50K+,"Dairy from Dairy department, Ordered Brand : Even Better",-1.0,28.6358,no,"['Ready Food', 'Florist', 'Bar For Salad', 'Coffee Bar', 'Video Store']",Price Destroyers,Deluxe,$3.45 M,1.518 M,2038.11,2838.76,,322.81,val: 777.2826,belo horizonte,MG,-19.92617665751052,-43.9900225881182,sao paulo,SP,-23.55487039661836,-46.5943762934965,data: 1.0
mc_ID_11768,"Maried Female with three children, education: partial high school working as professional",€110K+,"Cleaning Supplies from Household department, Ordered Brand : Sunset",30.5255,26.1647,no,"['Coffee Bar', 'Bar For Salad', 'Florist', 'Ready Food']",Weekend Discount,Gourmet,1.66 M,0.5146 M,1562.79,2207.28,385.45,257.59,amount: 470.177,"Botucatu
",SP,-22.890494208440284,measure: -48.44482949727183, santo andre,SP,amount: -23.665703457960586,-46.51808196779969,5.0/5.0
mc_ID_11769,"Married Male with two children, education: partial college working as professional",90K+,"Miscellaneous from Checkout department, Ordered Brand : Queen",19.7689,16.8617,yes,"['Florist', 'Bar For Salad', 'Video Store', 'Coffee Bar', 'Ready Food']",GLD,dELuxE,€7.2M,4.0608 M,1872.5,2862.23,,395.95,484.1411,bras1lia,DF,val: -15.687127618933868,measure: -47.8263635190533,ribeirao preto_,_$P,-21.116471333054424,-47.79073400291418,5.0
mc_ID_11770,"Married Male with two children, education: high school degree working as skilled manual",30K+ annually,"Bathroom Products from Health and Hygiene department, Ordered Brand : Steady",19.9142,15.4081,yes,"['Bar For Salad', 'Florist', 'Ready Food', 'Coffee Bar', 'Video Store']",Money Savers,Deluxe,2.28 M,0.8436 M,1871.16,2865.44,593.93,395.76,$343.61,sao bernardo do campo,SP,-23.699353075768943,-46.5600310818858, sAO PAuLO,SP,-23.522790877315536,-46.53604251012755,2.0
mc_ID_11771,"Married Male with two children, education: graduate degree working as management",70K+,"Jams and Jellies from Baking Goods department, Ordered Brand : BBB Best",11.12,6.7592,yes,[],Sales Days,Supermarket,5.92 M,2.6048 M,2048.02,,457.36,304.91,610.5502,jequie,BA,-13.860650975558046,-40.06849338679207,tubarao,SC,-28.46951928224586,data: -48.99324969252177,4.0
mc_ID_11772,"Married Male with two children, education: high school degree working as skilled manual, Married Male with two children",30K+,"Beer and Wine from Alcoholic Beverages department, Ordered Brand : Good",10.0153,8.5471,no,['Florist'],Save It (Sale),supermarket,6.48 M,2.7864 M,1320.15,2192.32,523.32,,€363.60,sao paulo,SP,-23.60666796364473,-46.70928249512391,campinas,SP,data: -22.917053295025724,-47.061757854838746,4.0
mc_ID_11773,"Single Female with one child, education: partial HS working as manual.",10K+,"Fruit from Produce department, Ordered Brand : High Top",,14.2452,yes,"['Florist', 'Coffee Bar', 'Bar For Salad', 'Video Store', 'Ready Food']",,Deluxe,11.04 M,4.3056 M,1731.56,,503.07,335.38,282.9953,conselheiro lafaiete,MG,-20.653541574550808,-43.79083732604181,itatiba,$P,-23.005474434298936,-46.84112811740003,4.0
mc_ID_11774,"Married Male with three children, education: partial high school working as skilled manual",10K+,"Cleaning Supplies from Household department, Ordered Brand : Cormorant",28.4904,24129.60 grams,no,['Coffee Bar'],Weekend Discount,sUPERMArKeT,3.84 M,1.5744 M,1236.86,1975.45,440.92,292.44,364.1649,vargem,sp,-22.90321267809593,-46.38232959310745,sao PaUlo,SP,-23.48615388842405,-46.71456818137228,1.0
mc_ID_11775,"Married Male with three children, education: partial high school working as skilled manual",10K+,"Meat from Deli department, Ordered Brand : Cutting Edge",9.9716,7.0645,yes,[],Sales Days,SUPERMARKET,6.99 M,2.097 M,2049.72,2812.5,457.36,306.63,610.5502,pap4gaios,MG,-19.44022546096705,-44.752428646173385,sao paulo,SP,-23.62358155176294,-46.61056007369148,1.0
mc_ID_11776,"Single Male with four children, education: partial high school working as skilled manual",10k,"Cold Remedies from Health and Hygiene department, Ordered Brand : Bird Call",25.1472,,no,[],Budget Bargains,,$5.78 M,2.1964 M,,3390.88,783.64,522.49,546.0643,	sao paulo,SP,-23.55951039494492,-46.66706390175425,sao paulo,SP,-23.555682314184303,-46.63309991286275,3.0
mc_ID_11779,"Single Female with four children, education: bachelors degree working as management",50K+ annually,"Dairy from Dairy department, Ordered Brand : Club",25.874,22.8214,yes,"['Bar For Salad', 'Ready Food']",Super Duper Savers,sUP3RmaRket,10.28 M,3.9064 M,2265.9,3687.88,853.22,,677.285,vitoria,ES,val: -20.258838451007023,-40.29431343326209,monte siao,MG,-22.42880507067007,-46.569550269431765,5.0
mc_ID_11780,"married male with three children, education: high school degree working as manual",30 Thousand,"Vegetables from Produce department, Ordered Brand : High Top",28.6358,27.1822,no,"['Ready Food', 'Bar For Salad']",Money Savers,Supermarket,$8.25 M,4.0425 M,,3688.0,853.22,568.75,432.0503,CONCORDIA,SC,-27.22653060850951,-52.02147812014162,cascavel,PR,-24.961400882504734,-53.45816618100577,1.0
mc_ID_11781,"Married Male with two children, education: partial college working as skilled manual",50K+,"Canned Anchovies from Canned Foods department, Ordered Brand : Pleasant",measure: 13.6928,-999.0,yes,"['Bar For Salad', 'Ready Food', 'Coffee Bar', 'Florist', 'Video Store']",Shelf Emptiers,,10.32 M,3.9216 M,1424.85,2196.35,465.54,310.3,564.2647,jaboatao dos guararapes,"Pe
",-8.107909195969679,-35.00556729785542,Campinas,SP,-22.85275770752771,-47.05510214136723,1.0
mc_ID_11782,"Single Male with three children, education: bachelors degree working as professional",50K+,"Plastic Products from Household department, Ordered Brand : Cormorant",24.8564,,yes,[],Save Price,,10.72 M,3.752 M,1508.0,,227.8,153.13,val: 428.0755,pirapora do bom jesus,sp,-23.4147842109558,-46.9744489453111,sañto andre,SP,-23.665703457960586,-46.51808196779969,3.0
mc_ID_11783,"Married Female with three children, education: Bachelors degree working as professional",70K+,"Vegetables from Produce department, Ordered Brand : Tri-State",-999.0,27.0368,yes,[],,SUPERMARKET,"8.84 ,000,000",3.4476 M,2049.72,2811.99,459.36,304.91,527.7593,rio 	de 	janeiro,RJ,-22.924709159377265,val: -43.62735147659086,garulhos,SP,-23.43410150291419,-46.55347243450285,5.0
mc_ID_11784,"Married Female with two children, education: high school degree working as skilled manual",30K+,"Starchy Foods from Starchy Foods department, Ordered Brand : Medalist",27.1822,24.275,yes,[],Two Day Sale,Mid-Size,5.56 M,2.6688 M,2085.67,3396.31,783.64,522.49,734.9719,brasilia_,Df,-15.832475819308588,-48.01033388194513,praia 	grande,sp,-24.011288218359883,-46.41873374429398,1.0
mc_ID_11785,"Single Female with two children, education: high school degree working as manual",30K+,"Canned Soup from Canned Foods department, Ordered Brand : Bravo",9.3175,7.8494,no,"['Ready Food', 'Florist', 'Bar For Salad', 'Video Store', 'Coffee Bar']",Lottery Cash Registerion,DEluxE,9.96 M,3.8844 M,1734.5,2568.92,503.07,336.32,500.9294,angra dos reis,RJ,-22.96950632736876,-44.30339692787364,bady bassitt,SP,-20.9245222402303,-49.45780155372428,5.0
mc_ID_11787,"Married Female wiht four children, education: bachelors degree working as professional",30K+,"Candy from Snacks department, Ordered Brand : Thresher",data: 10.4659,7.5441,no,"['Florist', 'Bar For Salad', 'Video Store', 'Coffee Bar', 'Ready Food']",I Cant Believe It Sale,Deluxe,3.62 M,1.6652 M,1734.5,2570.86,503.07,335.91,measure: 363.3281,sao paulo,SP,-23.57905316467664,-46.769003873293386,sao paulo,SP,val: -23.54279940605341,-46.595165217323526,4.0
mc_ID_11789,"Married Female with one child, education: partial high school working as manual",10K+,"Jams and Jellies from Baking Goods department, Ordered Brand : Super",24.1296,amount: 21.2225,no,['Coffee Bar'],Promo Big,Supermarket,5.04 M,1.5624 M,1239.03,,440.92,293.95,647.8924,sao jose,$C,data: -27.568918660944803,-48.6332460149761,CAskAVEl,Pr,-24.966371460470743,val: -53.46488320191585,3.0
mc_ID_11794,"Single Male with two children, education: partial college working as skilled manual",30K+,"Snack Foods from Snack Foods department, Ordered Brand : Best Choice",amount: 21.3678,,yes,[],Price Destroyers,,4.76 M,1.7136 M,1508.0,1887.7,227.8,151.06,val: 588.3227,porto alegre,rs,-29.991483510663272,-51.09895269471816,,,,,4.0
mc_ID_11795,"Married Female with No children, education: partial high school working as skilled manual",10K+,"Snack Foods from Snack Foods department, Ordered Brand : Fast",13.1114,10.2042,yes,"['Bar For Salad', 'Ready Food', 'Florist', 'Video Store', 'Coffee Bar']",Pick Your Savings,GOURMET,9.24 M,4.5276 M,1425.37,2200.69,465.54,308.9,351.7175,_belo horizonte,MG,-19.92449229586244,-43.947039608806,rio claro,Sp_,-22.402133192076768,-47.56233402025511,4.0
mc_ID_11798,"Single Male with four children, education: high school degree working as skilled manual",30K+,"Pizza from Frozen Foods department, Ordered Brand : Golden",24.8564,23.4028,yes,"['Florist', 'Bar For Salad', 'Ready Food', 'Video Store', 'Coffee Bar']",Promo Big,Deluxe,"3.32 ,000,000",1.0956 M,1871.16,2863.39,593.93,,data: 578.2288,_sao paulo,SP,-23.55001132944774,-46.64818240521669,lajeado,RS,-29.44175457955597,-51.96130964790591,3.0
mc_ID_11799,"SINGLE MALE W/ TWO CHILDREN, EDUCATION: PARTIAL COLLEGE WORKING AS MANAGEMENT",30K+,"Snack Foods from Snack Foods department, Ordered Brand : Fort West",23.5482,20.641,no,[],Wallet Savers,Supermarket,€6.1M,2.7768 M,2051.12,2810.0,457.36,,418.1385,limeira, SP ,data: -22.57487785152052,-47.416177053147926,londrina,PR,data: -23.331043778111702,measure: -51.17743350000001,10.0/10
mc_ID_11800,"Married Male with two children, education: high school degree working as manual",30K+,"Frozen Desserts from Frozen Foods department, Ordered Brand : Big Time",11.9921,371.74 oz,yes,"['Bar For Salad', 'Ready Food']",Save It (Sale),Supermarket_,$2.55 M,0.867 M,,3683.68,853.22,568.75,339.1132,sao paulo,SP,-23.540667757429706,-46.6155573687172,curitlba,PR,-25.43585833749783,-49.22158276824976,measure: 1.0
mc_ID_11801,"Single Male with five children, education: bachelors degree working as professional",50K+,"Specialty from Produce department, Ordered Brand : Tri-State",28.6358,24.275,no,[],Budget Bargains,supErmaRkEt,3.52 M,1.5136 M,1623.48,2192.25,341.05,227.33,623.7298,areras,SP,measure: -22.35906286886278,-47.3807194132873,sete lagoas,MG,-19.46361254830593,data: -44.24441403023008,amount: 3.0
mc_ID_11802,"Single Male with two children, education: partial high school working as skilled manual",10K+,"Vegetables from Produce department, Ordered Brand : Ebony",data: 20.7864,16.4256,yes,"['Ready Food', 'Bar For Salad']",Roller Savings (High) ,Supermarket,5.8 M,2.204 M,2265.9,3687.88,853.22,567.95,356.4245,ribeirao preto,SP,-21.16850440882337,-47.79370519233655,joinville,$C,val: -26.28314924562872,-48.85128463059032,5.0
mc_ID_11804,"Married Female with four children, education: partial high school working as skilled manual",10K or more,"Bathroom Products from Health and Hygiene department, Ordered Brand : Bird Call",,16.4256,no,"['Florist', 'Bar For Salad', 'Coffee Bar', 'Ready Food']",,Daluxe,2.08 M,0.8736 M,2052.74,3145.51,654.13,,312.9109,valinhos,SP,-22.983092033963143,measure: -46.99579127087601,itatiba,SP,-22.99567770323237,-46.857106243157794,4.0
mc_ID_11806,"Single Female with two children, education: high school degree working as manual",$30K+,"Electrical from Household department, Ordered Brand : Red Wing",measure: 28.1997,25.1472,yes,"['Bar For Salad', 'Ready Food', 'Coffee Bar', 'Florist', 'Video Store']",Lottery Cash Registerion,Deluxe,"8.64 ,000,000",3.3696 M,1734.5,2572.86,,334.46,313.0678,ITAQUAQUECETUBA,SP,-23.464295023583936,-46.32874959104104,ibitinga,SP,amount: -21.7664768468313,-48.83154737836604,3.0
mc_ID_11807,"Single Male with four children, education: high school degree working as skilled manual",30K+,"Side Dishes from Deli department, Ordered Brand : Cutting Edge",8.9977,data: 6.0906,yes,"['Ready Food', 'Coffee Bar', 'Bar For Salad', 'Video Store', 'Florist']",Super Savers,Deluxe_,4.65 M,1.395 M,1525.28,2147.17,373.1,248.79,755.9442,sao paulo,sp ,-23.599634741329545,-46.6603591434878,barueri,SP,-23.5105249691296,-46.86104614786531,5.0
mc_ID_11808,"Maried Female with two children, education: High School degree working as skilled manual",Income: 10K+,"Frozen Desserts from Frozen Foods department, Ordered Brand : Big Time",25.0018,22.0946,no,"['Bar For Salad', 'Video Store', 'Florist', 'Coffee Bar', 'Ready Food']",Promo Big,Deluxe,€2.5M,1.1466 M,1869.49,,593.93,,578.2288,nilopolis,RJ_,-22.800936387437307,-43.42486085339982,rio de janeiro,RJ,-22.87459850346245,-43.477731000000006,val: 5.0
mc_ID_11809,"Single Male with one child, education: high school degree working as manual",30K+,"Eggs from Eggs department, Ordered Brand : Blue Medal",,25.4379,yes,['Coffee Bar'],Sale Sale Sale,Supermarket_,$6.57 M,2.3652 M,1236.07,1970.94,442.92,,val: 473.7334,belo horizonte,Mg,-19.85389462003007,measure: -43.927915814184296,sao paulo_,sp,val: -23.553644898695826,-46.63261889578163,1.0
mc_ID_11812,"Married Female with two children, education: partial high school working as manual",10K+,"Frozen Desserts from Frozen Foods department, Ordered Brand : Carrington",20.2049,,yes,"['Ready Food', 'Bar For Salad']",Save It (Sale),,8.96 M,4.2112 M,2266.02,3683.19,853.22,568.98,339.1132,belford roxo,rJ,data: -22.742235199560103,-43.40261101046788,ibitinga,SP,-21.7664768468313,-48.83154737836604,5.0
mc_ID_11813,"Married Male with two children, education: partial college working as management",90K+,"Jams and Jellies from Baking Goods department, Ordered Brand : Super",25.2925,20.7864,no,"['Bar For Salad', 'Video Store', 'Florist', 'Coffee Bar', 'Ready Food']",Price Winners,Deluxe,2.7 M,0.999 M,2038.11,2842.06,481.98,319.52,amount: 453.9117,jau,sp,-22.30774613849616,-48.57869968734491,penapolis,SP,-21.426570046543283,-50.06791761043272,val: 5.0
mc_ID_11814,Married Female with two children; education: bachelors degree working as management,70K+,"Candy from Snacks department, Ordered Brand : Thresher",data: 14.972,12.0648,yes,"['Ready Food', 'Florist', 'Bar For Salad', 'Coffee Bar']",Shelf Emptiers,Gourmet,6.32 M,Not Specified,1567.63,2207.28,385.45,256.97,773.0986,caieiras,SP,-23.339741429318384,-46.75688078158616,sao paulo,SP,val: -23.65111484251016,-46.75521082321932,1.0
mc_ID_11815,"Single Male with five children, education: partial high school working as manual",10K+,"Baking Goods from Baking Goods department, Ordered Brand : Plato",16.571,,no,"['Coffee Bar', 'Bar For Salad', 'Video Store', 'Florist', 'Ready Food']",Price Slashers,Deluxe ,5.16 M,2.0124 M,,2144.3,373.1,247.08,amount: 403.9652,goiamia,go,-16.71582450862408,-49.26037794008604,capivari,sp,measure: -23.0122137105142,-47.52203973160603,4.0
mc_ID_11816,"Married Male with four children, education: High School degree working as skilled manual",30K+,"Vegetables from Canned Foods department, Ordered Brand : Pleasant",-10.9019,measure: 9.4484,yes,"['Ready Food', 'Bar For Salad']",Two for One,supermarket,4.8 M,2.304 M,2265.9,3691.6,853.22,568.75,555.426,ananindeua,PA,-1.3556635787308342,-48.403802111059946,sao paulo,SP,measure: -23.65111484251016,-46.75521082321932,5.0
mc_ID_11817,"SiNgLe mAlE WiTh fOuR ChIlDrEn, EdUcAtIoN: bAcHeLoRs dEgReE WoRkInG As pRoFeSsIoNaL, sInGlE MaLe wItH FoUr cHiLdReN",50K+,"Candy from Snacks department, Ordered Brand : Gulf Coast",28.0543,25.0018,yes,"['Bar For Salad', 'Ready Food', 'Florist', 'Coffee Bar']",Promo Big,Deluxe,8.94 M,3.2184 M,2055.29,3142.78,654.13,436.09,267.3576,BADY BASSITT,SP,-20.9245222402303,val: -49.45780155372428,araguari,mg,-18.65223568071188,data: -48.19343213192182,val: 4.0
mc_ID_11818,"Single Female with three childern, education: Bachelors degree working as management",50K+,"Canned Soup from Canned Foods department, Ordered Brand : Better",-12.6899,9.7681,yes,"['Bar For Salad', 'Ready Food']",Coupon Spectacular,supermarket,7.48 M,2.6928 M,2265.9,3687.88,853.22,568.75,measure: 269.1881,5ao paulo,SP,-23.574334452680457,-46.50181676172888,sao paulo,"Sp
",-23.51674732944774,-46.54818243075192,4.0
mc_ID_11820,"Single Male w/ one child, education: partial college working as manual",$30K+,"Meat from Deli department, Ordered Brand : Cutting Edge",62.81 lbs,,yes,[],Save It (Sale), 5UPERMARKET ,2.16 M,0.9504 M,2049.72,2811.99,457.36,304.91,467.4051,santa barbara d'oeste,Sp,-22.72555372425961,-47.36655774789988,guarulhos,sp,-23.48378507576896,data: -46.54155402025511,4.0
mc_ID_11822,"MaRrIeD MaLe wItH TwO KiDs, EdUcAtIoN: bAcHeLoR'Ss dEgReE WoRkInG As pRoFeSsIoNaL",10K+ annually,"Specialty from Produce department, Ordered Brand : Hermanos",measure: nan,13.6492,yes,"['Florist', 'Coffee Bar', 'Bar For Salad', 'Ready Food']",Promo Big,DELUXE,5.94 M,2.673 M,2054.45,3147.96,654.13,436.09,267.3576,palhoca,Sç,measure: -27.64301988374891,-48.6725565749633,juinville,sC,-26.28314924562872,-48.85128463059032,5.0
mc_ID_11823,"Single Male with No children, education: high school degree working as skilled manual, education: high school degree working as skilled manual",50000,"Breakfast Foods from Frozen Foods department, Ordered Brand : PigTail",25.5832,24.1296,yes,"['Video Store', 'Florist', 'Ready Food', 'Bar For Salad', 'Coffee Bar']",Roller Savings (High) ,gourmet,4.48 M,1.9712 M,1424.85,2203.3,465.54,310.24,532.6232,vILa VeLhA,ES,-20.33161263550869,-40.27958609200332,Guariba,SP,-21.36235769739203,-48.232975701561735,measure: 5.0
mc_ID_11824,"Single Male with five children, education: partial high school working as skilled manual",$10K+,"Frozen Entrees from Frozen Foods department, Ordered Brand : Carrington",14.8266,,no,"['Bar For Salad', 'Video Store', 'Coffee Bar', 'Florist', 'Ready Food']",Tip Top Savings,Deluxe,11.04 M,4.1952 M,2038.11,2840.07,481.98,323.19,416.2557,sao paulo,$P,-23.617107882165563,-46.64166179368504,jau,	$P,-22.27568678711987,-48.542599749927895,5.0
mc_ID_11826,"Married Male with five kidren, education: high school degree working as professional",Income: 130K+,"Bathroom Products from Health and Hygiene department, Ordered Brand : Hilltop",val: 23.2575,data: 18.8967,yes,[],Best Price Savers,5upermarket,11.9 M,5.474 M,1508.0,1887.7,227.8,151.9,650.4028,maua,Sp,-23.656676689970634,val: -46.44420755410021,itatiba,SP,-23.005474434298936,-46.84112811740003,4.0
mc_ID_11827,"Married Female with four children, education: high school degree working as professional",$70K+,"Bathroom Products from Health and Hygiene department, Ordered Brand : Faux Products",28.6358,25.7286,yes,"['Bar For Salad', 'Florist', 'Coffee Bar', 'Ready Food', 'Video Store']",Discount Frenzy,D3luxe,$6.87 M,2.4732 M,1869.71,,593.93,395.03,326.352,duque de caxia$,RJ,-22.63424849999999,-43.26238575, guaru1hos,$P,-23.453200132516344,-46.484469408993874,5.0
mc_ID_11828,"Single Female with one child, education: Bachelors degree working as professional",50K+,"Snack Foods from Snack Foods department, Ordered Brand : Horatio",data: 17.4431,13.0823,no,"['Video Store', 'Coffee Bar', 'Ready Food', 'Bar For Salad', 'Florist']",Lottery Cash Registerion,Daluxe,9.54 M,4.5792 M,1732.11,2573.38,503.07,335.38,290.7357, Mage ,RJ,,amount: nan,laranjal paulista,$P,-23.03582473318652,-47.8363026594829,5.0
mc_ID_11829,"Single Male with three children, education: partial high school working as skilled manual",30K+,"Pure Juice Beverages from Beverages department, Ordered Brand : Fabulous",-23.2575,21.8039,yes,"['Florist', 'Coffee Bar', 'Ready Food', 'Bar For Salad', 'Video Store']",Money Savers,DEIUXE,1.95 M,0.8775 M,1525.28,2143.1,,248.79,560.656,mirassol,	SP,-20.80606834590576,-49.50314249273567,CARAZINHO,r5,-28.28944621405989,-52.79412331824494,4.0
mc_ID_11830,"Single Female with No children, education: bachelors degree working as management",70K+,"Vegetables from Canned Foods department, Ordered Brand : Better",16.8617,-15.4081,yes,"['Video Store', 'Coffee Bar', 'Bar For Salad', 'Florist', 'Ready Food']",Price Winners,Deluxe,3.78 M,1.5498 M,2037.83,2841.35,,320.77,478.9634,	guarulho$, SP,data: -23.422313378296494,-46.520062240348594,sao peulo,SP,-23.58667354731954,-46.61242320483004,4.0
mc_ID_11831,"Single Female with one child, education: partial high school working as manual",10k,"Jams and Jellies from Baking Goods department, Ordered Brand : Plato",data: 30.3801,25.874,no,[],GLD,Supermarket,2.19 M,0.9636 M,1510.75,1887.7,229.8,153.78,727.9637,cui4ba,MT,-15.58027272133767,-56.0650519526469, jau ,SP,-22.27568678711987,-48.542599749927895,5.0
mc_ID_11832,"Married Male with three children, education: bachelors degree working as management",$70K+,"Specialty from Produce department, Ordered Brand : Tell Tale",11.4398,9.9716,no,"['Florist', 'Bar For Salad', 'Ready Food', 'Coffee Bar']",Sale : Double Down,Deluxe,€11.6M,5.576 M,2055.29,3148.48,,436.12,500.7202,porto alegre,RS,-30.0373750279428,-51.10576615986805,curitiba,PR,-25.43548786011886,-49.270213781291496,data: 5.0
mc_ID_11834,"Married Male with one child, education: bachelors degree working as management",70K+,"Vegetables from Produce department, Ordered Brand : Hermanos",23.5482,,no,['Coffee Bar'],Two Day Sale,,7.89 M,3.2349 M,1236.07,1970.94,440.92,293.95,477.3944,duque de caxias,RJ,-22.78581289392769,-43.30804347053546,	guariba,"SP
",-21.36235769739203,-48.232975701561735,5.0
mc_ID_11836,"Single Female with four children, education: high school degree working as skilled manual",30K+,"Cleaning Supplies from Household department, Ordered Brand : Sunset",23.8389,20.7864,yes,"['Coffee Bar', 'Florist']",Sales Days,MID-SIZE,3.7 M,1.628 M,,3200.69,,259.25,694.9624,registro,sP,-24.49203032806276,-47.83413137913321,HORtOLaNDiA,SP,-22.887514996879027,-47.19573904628551,5.0
mc_ID_11837,"Married Female with three children, education: partial high school working as manual",10K+,"Breakfast Foods from Frozen Foods department, Ordered Brand : Golden",10.3496,7.4279,no,"['Ready Food', 'Bar For Salad', 'Florist', 'Video Store', 'Coffee Bar']",Money Savers,Deluxe,"5.44 ,000,000",2.6656 M,1522.32,2147.78,373.1,,560.656,cachoeiro de itapemirim,Es,measure: -20.84936259522784,-41.11521241330253,N1terOi,RJ,-22.89428279372572,-43.12073703239408,5.0
mc_ID_11838,"Married Male with one child, education: bachelors degree working as professional",30K+,"Frozen Desserts from Frozen Foods department, Ordered Brand : Golden",17.8792,14.972,no,"['Ready Food', 'Bar For Salad']",Super Savers,supermarket ,11.67 M,3.8511 M,2448.37,3232.19,470.27,314.65,754.7413,lucelia,5p,-21.72156946959475,-51.02246171980429,porto alegre,RS,measure: -30.110020899532547,-51.23162798932419,5.0
mc_ID_11841,"Single Female with three children, education: high school degree working as manual",30K+,"Beer and Wine from Alcoholic Beverages department, Ordered Brand : Portsmouth",23.5482,19.1874,yes,[],Weekend Discount,Supermarket,8.64 M,3.888 M,1508.0,1887.7,227.8,151.9,735.1811,santa maria,RS,val: -29.70761096087477,-53.80869747224308,sao paulo,"$P
",val: -23.554079433810344,-46.53324185942636,5.0
mc_ID_11843,"Single Female with one child, education: high school degree working as skilled manual",30K or more,"Packaged Vegetables from Produce department, Ordered Brand : Tell Tale",26.31,23.4028,no,"['Bar For Salad', 'Ready Food']",Big Time Discounts,Supermarket,3.34 M,1.3026 M,2450.99,3232.19,470.27,,501.9754,ponta grossa,PR,-25.08679208232948,-50.127791387148,FRANCA,Sp,-20.530671079410943,-47.39851931627846,5.0
mc_ID_11844,"Married Female with three children, education: high school degree working as manual",30k,"Fruit from Produce department, Ordered Brand : Hermanos",25.2925,23.6936,yes,"['Bar For Salad', 'Florist', 'Coffee Bar', 'Ready Food', 'Video Store']",I Cant Believe It Sale,DELUXE,11.08 M,3.5456 M,1525.28,2147.17,,248.79,535.9181,rio de janeiro,RJ,-22.90210949070916,-43.18080246058632,sao paul0,$P,amount: -23.46016520927345,-46.65066418373822,5.0 stars
mc_ID_11845,"Married Male with one child, education: high school degree working as skilled manual",30K or more,"Snack Foods from Snack Foods department, Ordered Brand : Best Choice",27.0368,24.1296,yes,"['Bar For Salad', 'Coffee Bar', 'Florist', 'Video Store', 'Ready Food']",Price Slashers,deluxe,7.38 M,3.5424 M,1734.5,,,335.68,$283.00,CAJURU,$p,-21.272672631957786,-47.30592892225557,penapolis,SP,data: -21.426570046543283,-50.06791761043272,1.0
mc_ID_11846,"Married Female with one child, education: bachelors degree working as professional",50K+,"Bathroom Products from Health and Hygiene department, Ordered Brand : Steady",16.7163,12.3555,yes,['Coffee Bar'],Budget Bargains,small grocery,$3.6 M,1.728 M,,2285.14,534.29,356.19,414.8959,campinas,SP,-22.946206445520712,-47.13505192996653,itaquaqu3cetuba,$p,amount: -23.48262344063541,-46.37448952833195,5.0
mc_ID_11847,"Single Male with five children, education: high school degree working as professional",70K+,"Plastic Products from Household department, Ordered Brand : Sunset",31.543,28.6358,yes,[],Saving Days,suPErMarKET,2.26 M,0.7458 M,1508.27,1887.7,227.8,151.9,619.0228,rio de janeiro,RJ,-22.828048072162275,-43.37464654010617,cruzeiro,Sp,measure: -22.57792780460501,-44.95825089647411,5.0
mc_ID_11848,"Single Female with two kids, education: high school degree working as professional",70K+,"Vegetables from Produce department, Ordered Brand : Hermanos",measure: 27.1822,,yes,"['Bar For Salad', 'Florist', 'Ready Food', 'Coffee Bar']",Save It (Sale),,10.08 M,3.9312 M,2055.29,3145.51,656.13,436.09,728.9051,"teofilo oton1
",MG,-17.877614947753674,-41.50059971564279,sao paulo,	SP,-23.555682314184303,-46.63309991286275,4.0
mc_ID_11849,"Single Female with one child, education: graduate degree working as professional, education: graduate degree working as professional",130K+,"Specialty from Produce department, Ordered Brand : High Top",31.3976,28.4904,yes,"['Coffee Bar', 'Video Store', 'Bar For Salad', 'Ready Food', 'Florist']",Green Light Special,deluxe,8.46 M,3.807 M,1525.28,,373.1,250.08,507.9899,pe1otas,RS,measure: -31.77452642353856,-52.33668313682272,assis,SP,-22.651747459893823,-50.38975850805008,1.0
mc_ID_11850,"Married Female with four kids, education: bachelors degree working as professional",50K+,"Bathroom Products from Household department, Ordered Brand : Denny",13.344,10.4368,no,"['Bar For Salad', 'Ready Food', 'Florist', 'Coffee Bar']",Discount Frenzy,Deluxe,6.39 M,2.1726 M,2054.32,3145.51,654.13,434.36,779.6884,canaa dos carajas,PA,-6.549958603764686,-49.84652773962353,curitibanos_,_SC,-27.288614821408185,-50.57696646191445,5.0
mc_ID_11851,"Married Female with one kid, education: bachelors degree working as professional",Income: 50K+,"Frozen Desserts from Frozen Foods department, Ordered Brand : Carrington",amount: nan,,yes,"['Video Store', 'Bar For Salad', 'Coffee Bar', 'Ready Food', 'Florist']",Lottery Cash Registerion,,4.48 M,2.0608 M,1734.5,2572.52,503.07,335.87,646.4803,jandira,Sp,-23.55933678143786,-46.90478111014794,sao paulo,_SP,-23.68729227976227,-46.6417415487045,5.0
mc_ID_11852,"Single Female with three children, education: high school degree working as manual",30K or more,"Vegetables from Canned Foods department, Ordered Brand : Just Right",26.1647,23.2575,no,[],One Day Sale,_Supermarket,4.3 M,1.419 M,1508.0,1889.5,227.8,151.9,R$3373.85,ferraz de vasconcelos,sp,-23.517399656673792,-46.37005904079865,ATIBAIA,SP,-23.112774381969185,-46.5488845105504,1.0
mc_ID_11853,"Single Female with two children, education: HS degree working as manual",30k,"Miscellaneous from Checkout department, Ordered Brand : Akron",11.9776,9.06 kg,no,"['Bar For Salad', 'Ready Food', 'Florist', 'Coffee Bar', 'Video Store']",Shelf Emptiers,Gourmet,5.22 M,1.9836 M,,2200.69,465.54,310.3,718.2882,serra dos aimores,Mg,-17.78054551995526,-40.247067202186194,salto,5P,-23.18458241445101,-47.328649797768485,5.0
mc_ID_11855,"Single Male with two children, education: bachelors degree working as management",$70K+,"Hardware from Household department, Ordered Brand : High Quality",13.6928,10.7857,yes,[],Big Time Discounts,Supermarket,6.48 M,2.3328 M,1508.21,1888.71,227.8,151.9,761.488,sao paulo,SP,-23.467425066333888,-46.70391530322004,santo 4ndre,Sp,-23.665703457960586,-46.51808196779969,5.0
mc_ID_11856,"Married Male with two children, education: partial high school working as skilled manual",€25K+,"Hardware from Household department, Ordered Brand : Sunset",28.4904,25.5832,yes,"['Florist', 'Bar For Salad', 'Coffee Bar', 'Video Store', 'Ready Food']",Money Savers,Deluxe,5.49 M,2.0862 M,1525.28,2147.17,373.1,,560.656,campinas,SP,-22.946206445520712,-47.13505192996653,santo andre,SP,-23.665703457960586,-46.51808196779969,amount: 2.0
mc_ID_11857,"Married Female with one child, education: bachelors degree working as management",50K+,"Meat from Deli department, Ordered Brand : Moms",25.1472,23.5482,yes,"['Video Store', 'Florist', 'Coffee Bar', 'Ready Food', 'Bar For Salad']",Price Slashers,Deluxe,3.33 M,1.5984 M,1734.5,2569.96,505.07,337.1,282.9953,rio de janEiro,RJ,-22.93781597002137,-43.17619884430715,porto alegre,R$,-30.03215040714993,-51.2325516998384,5.0
mc_ID_11861,"Single Male with two kids, education: partial high school working as skilled manual",10K+,"Jams and Jellies from Baking Goods department, Ordered Brand : Plato",28.0543,23.5482,yes,[],Full Free,Supermarket,5.04 M,1.7136 M,1508.0,1887.7,227.8,151.9,272.2738,Çampinas,$p,measure: -22.907317211495144,-47.11830328850486,sorocaba,SP,-23.49636707533955,-47.43890030979464,5.0
mc_ID_11862,"Single Female with four children, education: partial high school working as manual",10000,"Starchy Foods from Starchy Foods department, Ordered Brand : Jardon",907.55 oz,22.8214,yes,"['Video Store', 'Coffee Bar', 'Florist', 'Bar For Salad', 'Ready Food']",Money Savers,Deluxe,1.92 M,unknown,1871.16,2861.13,593.93,397.81,343.611,pirecicaba,Sp,-22.71683928585045,-47.65736585405934,maringa,PR,-23.377396999935016,-51.93100618003307,4.0
mc_ID_11863,"Married Female with No children, education: Bachelors degree working as professional",Income: 130K+,"Fruit from Produce department, Ordered Brand : Tell Tale",,data: nan,yes,['Florist'],,Supermarket,7.59 M,2.6565 M,1320.15,,523.32,348.85,532.6232,rio de janeiro,RJ,-22.91537136850404,TBD,rio de janeiro,RJ,-22.972956517889177,-43.39706327699233,measure: 5.0
mc_ID_11865,"Single Male with five children, education: graduate degree working as professional",70K+,"Candy from Snacks department, Ordered Brand : Choice",26746.10 grams,25.1472,yes,"['Coffee Bar', 'Ready Food', 'Bar For Salad', 'Video Store', 'Florist']",Price Smashers,Deluxe,$9.5 M,3.23 M,,,373.1,248.79,499.2035,Sao PaulO,SP,-23.49997012461769,-46.42365639286743,sao paulo,Sp ,-23.54516769470249,-46.63224867958328,4.0
mc_ID_11866,"Married Female with three children, education: high school degree working as professional",70K+,"Dairy from Dairy department, Ordered Brand : Carlson",12.6608,9.7536,yes,"['Florist', 'Coffee Bar', 'Ready Food', 'Bar For Salad']",Roller Savings (High) , Gourmet,7.28 M,2.6936 M,1562.1,2207.28,385.45,256.97,637.6939,campinas,Sp,-22.91375738773156,-47.045573963500495,sao paulo,SP,val: -23.539824031911863,-46.434679443937874,5.0
mc_ID_11867,"Single  Male  with  three  children,  education:  high  school  degree  working  as  skilled  manual",30K+,"Fruit from Produce department, Ordered Brand : Tell Tale",20.0596,17.1524,no,"['Florist', 'Ready Food', 'Coffee Bar', 'Bar For Salad']",Super Duper Savers,Deluxe,5.22 M,1.8792 M,2055.29,3143.79,654.13,436.44,475.93, catanduva ,SP,-21.1419615015292,-48.97287469954993,porTo alEGre,RS,-30.01895817707312,-51.16296204564608,3.0
mc_ID_11868,"Married Female with two kids, education: bachelor'ss degree working as management",150K+,"Vegetables from Frozen Foods department, Ordered Brand : Golden",12.4718,data: 8.0965,yes,[],Save It (Sale),Supermarket,4.38 M,2.1462 M,1620.59,2194.32,341.05,227.33,353.7049,	sao goncalo,Rj,-22.82952666093368,-42.988551310768,campinas,SP_,-22.92991227115403,-47.07189552530681,5.0
mc_ID_11870,"Married Female with four children, education: high school degree working as professional",70K+,"Breakfast Foods from Frozen Foods department, Ordered Brand : Imagine",24.275,21.3678,yes,"['Ready Food', 'Bar For Salad', 'Florist', 'Video Store', 'Coffee Bar']",Shelf Clearing Days,Deluxe,€3.2M,1.7578 M,1871.16,2858.06,593.93,394.23,516.7763,manaus,AM,-3.073365534277796,-59.95421797807146,sao paulo,SP,-23.547285965837776,-46.56940937552652,5.0
mc_ID_11871,"Married Male with four children, education: partial college working as management",30K+,"Vegetables from Produce department, Ordered Brand : Tell Tale",29.2172,26310.00 grams,yes,"['Ready Food', 'Coffee Bar', 'Bar For Salad', 'Video Store', 'Florist']",Shelf Emptiers,_Gourmet,12.68 M,4.9452 M,1424.85,2200.69,465.54,310.3,718.2882,lencois paulista,$P,-22.58508820351035,-48.8109752196649,brusque,5C,-27.14105704919435,-48.96146112936535,5.0
mc_ID_11872,"Married Female with two children, education: high school degree working as manual",30k,"Snack Foods from Snack Foods department, Ordered Brand : Fort West",12.748,11.2944,no,[],Money Savers,5UPERMARKET,"4.52 ,000,000",1.356 M,,1887.7,227.8,151.9,277.2423,Salvador,BA,amount: -12.918456851184184,-38.35272390509517,sao  paulo,SP,-22.74098779744896,-47.60706025967849,5.0
mc_ID_11873,"Single Female with three children, education: high school degree working as manual",30K+,"Paper Products from Household department, Ordered Brand : Sunset",14.8266,11.9049,no,"['Coffee Bar', 'Florist', 'Video Store', 'Ready Food', 'Bar For Salad']",Price Winners,Deluxe,"3.18 ,000,000",1.272 M,1871.16,2860.32,595.93,397.57,436.9665,manaus,am,-3.0854050721622737,-59.94160454593455,santo andre,SP,val: -23.639620380229736,val: -46.50604149140166,5.0
mc_ID_11875,"Single Male with three children, education: bachelors degree working as professional",70k,"Kitchen Products from Household department, Ordered Brand : Red Wing",12.7771,-8.4018,no,"['Florist', 'Bar For Salad', 'Video Store', 'Coffee Bar', 'Ready Food']",Price Cutters,GOURMET,$5.26 M,2.3144 M,1424.85,2200.69,465.54,310.3,val: 675.716,piraCICAba,Sp,-22.693073720785986,-47.65447299085341,saopaulo,sp,-23.496403578683147,-46.44510648389983,5.0
mc_ID_11876,"Single Male with five children, education: partial high school working as manual",$10K+,"Vegetables from Produce department, Ordered Brand : Ebony",27182.20 grams,,no,"['Ready Food', 'Florist', 'Bar For Salad', 'Coffee Bar', 'Video Store']",One Day Sale,,3.46 M,1.1072 M,1424.85,,465.54,310.67,449.1524,mogi das cruzes,sp,-23.517127104923187,-46.19066721624193,sao paulo,SP,-23.56788988703906,-46.57394821510183,
mc_ID_11878,"MaRrIeD FeMaLe wItH FoUr cHiLdReN, eDuCaTiOn: HiGh sChOoL DeGrEe wOrKiNg aS MaNuAl, EdUcAtIoN: hIgH ScHoOl dEgReE WoRkInG As mAnUaL",30000,"Vegetables from Produce department, Ordered Brand : Hermanos",27.1822,,yes,[],Mystery Sale,,13.44 M,4.704 M,1623.73,2191.86,341.05,228.41,718.9681,PIrAcICaBa,SP,-22.693073720785986,-47.65447299085341,be7im,MG,-19.941877521944868,-44.11327370697121,4.0
mc_ID_11879,"Single Male with one child, education: graduate degree working as professional",90K+,"Fruit from Canned Products department, Ordered Brand : Applause",27.6183,24.7111,no,"['Coffee Bar', 'Florist', 'Video Store', 'Bar For Salad', 'Ready Food']",Sale Winners,Deluxe,$7.02 M,2.808 M,1871.5,2861.13,593.93,397.71,519.7574,santo andre,SP,-23.696333654452097,-46.5268662352127,cOntagEm,mg ,-19.88575709625392,-44.01809003760589,5.0
mc_ID_11880,Married Female with five children + education: partial high school working as manual,10K+,"Bread from Baked Goods department, Ordered Brand : Sphinx",-20.0596,17.1524,no,"['Coffee Bar', 'Ready Food', 'Bar For Salad', 'Florist']",Promo Big,Daluxe,6.33 M,2.2155 M,,3149.52,654.13,437.66,267.3576,SAO PAULO,SP,-23.50210750375091,amount: -46.62196127699232,petropolis,rj,-22.549033360244323,-43.210094724044055,5.0
mc_ID_11881,"Single Male with five children, education: partial high school working as manual",30K+,"Bread from Baked Goods department, Ordered Brand : Modell",10.5822,6.2214,yes,"['Ready Food', 'Video Store', 'Florist', 'Bar For Salad', 'Coffee Bar']",Shelf Emptiers,Gourmet,"4.88 ,000,000",2.2936 M,1424.85,2200.69,465.54,310.52,564.2647,porto alegre,RS,-30.04404879488149,-51.19180931334757,sao paulo,_SP,-23.693985995008337,-46.70188324132953,data: 5.0
mc_ID_11882,"Single Female with No children, education: High School degree working as management",$90K+,"Vegetables from Produce department, Ordered Brand : Tell Tale",17.2978,15.6988,yes,['Coffee Bar'],Weekend Discount,Supermarket,7.65 M,2.5245 M,1236.16,1970.94,440.92,293.95,698.728,rio de janeiro,RJ,-22.92505850706913,-43.230232813203365,Ber7Ioga,Sp,data: -23.82834010075353,-46.1430173832652,5.0/5.0
mc_ID_11883,"Single Male with one child, education: bachelors degree working as professional",50 Thousand,"Candy from Snacks department, Ordered Brand : Atomic",,22.5307,no,['Coffee Bar'],,Supermarket,4.32 M,1.6848 M,1236.07,1975.27,440.92,292.18,698.728,	cruz alta,R$,-28.62196387455739,-53.62389862391862,sao jose dos campos,SP,-23.221431461827063,-45.888163895493165,5.0
mc_ID_11884,"Married Male with five children, education: bachelors degree working as professional",Income: 110K+,"Vegetables from Produce department, Ordered Brand : Hermanos",27.1822,22.8214,yes,"['Bar For Salad', 'Florist', 'Ready Food', 'Coffee Bar']",Full Free,Deluxe,6.72 M,2.352 M,2055.83,3145.51,654.13,436.09,measure: 570.3838,Novo Hamburgo,RS,-29.69097966967412,-51.116357834642415,arARAngUA,SC,-28.940918963179666,-49.49582082677826,val: 1.0
mc_ID_11886,"Single Female with three children, education: bachelors degree working as management",70000,"Vegetables from Produce department, Ordered Brand : High Top",15.5534,data: 11.1781,no,"['Coffee Bar', 'Ready Food', 'Bar For Salad', 'Florist', 'Video Store']",Big Time Discounts,	Deluxe,4.56 M,1.4592 M,1734.5,nil,503.07,335.16,583.1973,aparecida de goiania,GO_,-16.764070999999944,-49.29423866599996,dracena,5p,-21.4988715,-51.53786099999999,3.0
mc_ID_11887,"Single Female with four children, education: bachelors degree working as management",30K+,"Canned Soup from Canned Foods department, Ordered Brand : Just Right",amount: nan,16.4256,yes,['Coffee Bar'],Budget Bargains,SUPERMARKET,1.83 M,0.8967 M,1236.07,1973.98,440.92,293.95,687.5358,sao paulo,SP,-23.554681721622696,amount: -46.393232741329534,sao paulo,SP,-23.58343069747245,-46.50203424424373,5.0
mc_ID_11890,"Married Male with three children, education: bachelors degree working as professional",1080+ monthly,"Vegetables from Canned Foods department, Ordered Brand : Just Right",12.5881,9.6664,yes,"['Ready Food', 'Coffee Bar', 'Florist', 'Bar For Salad']",Budget Bargains,Deluxe,5.22 M,1.9314 M,2052.62,3146.28,654.13,437.89,715.1502,sao paulo,SP,-23.465889785734884,-46.64887806633388,sao paulo,sp,-23.57282057729816,-46.52329640383172,4.0
mc_ID_11891,"Married Male with four kidren, education: partial high school working as professional",130K+,"Candy from Snacks department, Ordered Brand : Musial",12.341,9.4193,yes,['Coffee Bar'],Fantastic Discounts,Data Missing,$1.66 M,0.581 M,1423.44,2083.5,400.93,265.98,700.8723,belem,PA,-1.4351686532623154,-48.46701297918873,"maringa
",PR,-23.41000679702781,-51.88262571961486,5.0
mc_ID_11893,"Single Female with two children, education: partial high school working as skilled manual, Single Female with two children",120+ monthly,"Baking Goods from Baking Goods department, Ordered Brand : BBB Best",22.3853,20.7864,no,"['Florist', 'Ready Food', 'Video Store', 'Coffee Bar', 'Bar For Salad']",Money Savers,Deluxa,5.52 M,2.484 M,1526.45,2148.9,373.1,249.27,data: 560.656,rio de janeiro ,RJ,data: -22.91537136850404,-43.242996214902085,riberao preto,sp,-21.16850440882337,-47.79370519233655,4.0
mc_ID_11894,"Married Male with three children, education: partial college working as clerical",30K+,"Frozen Desserts from Frozen Foods department, Ordered Brand : Imagine",28.0543,25.0018,no,['Coffee Bar'],Best Savings,Supermarket,11.76 M,4.5864 M,1237.78,1970.94,440.92,,596.2723,rio de janeiro, rj,-22.92531913366395,-43.25369631041029,sao paulo,SP,-23.49517247515727,-46.50119464071786,4.0
mc_ID_11895,"Married Male with three children, education: bachelors degree working as management",50K+,"Frozen Desserts from Frozen Foods department, Ordered Brand : Golden",26.4554,25.0018,no,['Florist'],Savings Galore,Supermarket,7.35 M,2.7195 M,,,523.32,349.84,322.4295,riudejaneiro,RJ,-22.962511351924544,-43.17640771510184,LBITINGA,5P,-21.7664768468313,-48.83154737836604,5.0
mc_ID_11896,"Marriied Female with two children, education: bachelors degree working as professional",50 Thousand,"Vegetables from Produce department, Ordered Brand : Ebony",measure: 25.2925,22.24,yes,"['Florist', 'Video Store', 'Bar For Salad', 'Coffee Bar', 'Ready Food']",Sale : Double Down,Deluxa,11.88 M,4.3956 M,1734.5,2576.06,,335.38,265.6317,sao paulo,SP,-23.53179206858425,-46.7062335,VicEnTe de caRVALHO,Sp,-23.939318620030072,-46.30539278864907,5.0
mc_ID_11897,"Single Female with one child, education: partial college working as skilled manual",50K+,"Drinks from Beverages department, Ordered Brand : Excellent",18.606,15.6988,no,"['Florist', 'Ready Food', 'Bar For Salad', 'Coffee Bar']",Price Winners,dELuXE,8.94 M,4.1124 M,2055.29,3145.51,654.13,436.41,494.9149,barueri,SP_,-23.52735457368866,measure: -46.88567388149708,joinvIIle,SC,-26.25351566740153,-48.80168204279203,data: 5.0
mc_ID_11899,"Single Male with two children, education: bachelors degree working as professional",50K+,"Eggs from Eggs department, Ordered Brand : Blue Medal",24.7111,21.8039,no,"['Coffee Bar', 'Florist', 'Ready Food', 'Bar For Salad']",Super Duper Savers,Deluxe,8.52 M,2.8968 M,2055.29,3142.89,,,364.2695,"cosmopolis
",SP,-22.63040932101044,-47.20184824565054,bertioga,5P,-23.82834010075353,-46.1430173832652,5.0
mc_ID_11900,"Maried Female with three children, education: bachelors degree working as professional",$50K+,"Snack Foods from Snack Foods department, Ordered Brand : Best Choice",,29.7987,yes,"['Coffee Bar', 'Bar For Salad', 'Ready Food', 'Video Store', 'Florist']",Price Destroyers,DEluxE,8.73 M,3.7539 M,,2841.83,483.98,321.26,777.2826,taguatinga,DF,-15.838387228836044,-48.01147928126522,araguari,MG,-18.643784093954583,-48.20804381879092,3.0
mc_ID_11902,"Married Female with one child, education: bachelors degree working as professional",70 Thousand,"Meat from Deli department, Ordered Brand : Moms",26.7461,-25.1472,yes,[],Go For It,Supermarket,6.87 M,2.748 M,2051.17,2811.99,457.36,304.91,525.8765,SAlvadOr,"BA
",amount: -12.89000245694849,-38.40072523449346,itajobi,SP,-21.311150026298016,-49.0511614229539,measure: 1.0
mc_ID_11904,"Married Male with five children, education: high school degree working as manual",30K+,"Starchy Foods from Starchy Foods department, Ordered Brand : Monarch",18.8967,val: 14.5359,no,"['Florist', 'Bar For Salad', 'Coffee Bar', 'Ready Food']",Dollar Days,DeLuXe,15.6 M,6.864 M,2055.29,,654.13,436.09,725.9763,goianla,gO,-16.67316640999716,-49.266972048074194,sao paulo,SP,-23.55684999916328,-46.56941527477062,5.0
mc_ID_11905,"Married Male with four children, education: bachelors degree working as professional",50K+,"Meat from Deli department, Ordered Brand : Lake",17.8792,16.4256,no,"['Florist', 'Coffee Bar', 'Ready Food', 'Video Store', 'Bar For Salad']",Lottery Cash Registerion,Deluxe,6.12 M,1.8972 M,1731.72,2572.86,503.07,336.97,500.9294,santo andre, sP ,-23.69931254058364,-46.501432357095794,sao paulo,sp,-23.472335179294816,-46.64636526449883,5.0
mc_ID_11907,"Married Male with five children, education: partial high school working as management",70K+,"Pain Relievers from Health and Hygiene department, Ordered Brand : Hilltop",,,yes,[],Sales Days,,10.8 M,3.348 M,2049.08,2808.34,457.36,303.95,610.5502,Not Specified,Sp,-23.6358037821282,data: -46.63803244364944,sao paulo,Sp,-23.54478975206393,amount: -46.495489292925285,5.0
mc_ID_11908,"Single Male with three childran, education: High School degree working as skilled manual",Income: 30K+,"Fruit from Produce department, Ordered Brand : Hermanos",21.8039,20.3503,yes,[],Wallet Savers,Supermarket,5.12 M,2.4064 M,2046.97,2811.99,457.36,304.91,418.1385,barueri,SP ,-23.50924262107987,-46.88666937892011,sao paulo,SP,-23.51845531779098,data: -46.53268368206479,5.0
mc_ID_11910,"Single Male with three children, education: high school degree working as manual, education: high school degree working as manual",$50K+,"Starchy Foods from Starchy Foods department, Ordered Brand : Monarch",18.8967,14.5359,no,[],Price Winners,Supermarket,7.8 M,3.12 M,1623.48,2196.6,343.05,226.95,586.7537,uberaba,MG,data: -19.751249095475785,-47.93019340368748,guariba,sp,-21.36235769739203,-48.232975701561735,3.0
mc_ID_11912,"Single Male with four children, education: partial High School working as skilled manual",10K+,"Electrical from Household department, Ordered Brand : Cormorant",29.7987,26.8915,no,"['Bar For Salad', 'Ready Food']",Mystery Sale,Supermarket,"8.28 ,000,000",4.14 M,2265.9,3692.58,853.22,567.66,444.3931,sao paulo,sp,-23.624782532892816,-46.7403537732414,"prala grande
",5P,-24.011288218359883,-46.41873374429398,5.0
mc_ID_11914,"Single Male with two children, education: partial college working as clerical",30K+,"Canned Soup from Canned Foods department, Ordered Brand : Just Right",25.1472,23.5482,no,"['Video Store', 'Coffee Bar', 'Ready Food', 'Bar For Salad', 'Florist']",You Save Days,gOuRMet,4.59 M,1.6065 M,,,465.54,,689.3663,sabara,MG,-19.87728758806303,-43.90111534483172,	salvador,BA,-12.98158709241737,-38.45526521634257,5.0
mc_ID_11915,"SINGLE MALE WITH FOUR KIDS, EDUCATION: BACHELOR'SS DEGREE WORKING AS PROFESSIONAL",840+ monthly,"Snack Foods from Snack Foods department, Ordered Brand : Fast",val: nan,27.3275,yes,['Coffee Bar'],,SMALL GROCERY ,"1.86 ,000,000",0.6324 M,2068.17,,330.83,,578.0196,ALVINOPOLIS,MG,val: -20.10751433999627,data: -43.05751404000867,SAO PAULO,_SP,-23.57714001165677,-46.48276229003407,measure: 4.0
mc_ID_11916,"Married Female with one child, education: bachelors degree working as professional",70000,"Hot Beverages from Beverages department, Ordered Brand : Landslide",14.2307,11.309,yes,['Coffee Bar'],Discount Frenzy,Supermarket,9.28 M,3.8976 M,1236.07,1970.94,440.92,295.29,760.4943,$antos,sp ,-23.926204437438788,-46.37268016740089,ñova friburgo,RJ,-22.31000521194919,val: -42.52023373510779,5.0
mc_ID_11917,"Married Female with four children, education: partial high school working as skilled manual",50K+,"Frozen Desserts from Frozen Foods department, Ordered Brand : Golden",14.2597,val: 12.8062,yes,"['Ready Food', 'Bar For Salad']",Super Duper Savers,Supermarket,3.8 M,1.178 M,2265.9,3692.67,853.22,568.75,677.285,guarulhos,SP,-23.45148088210395,-46.53010976420791,HORTOLANDIA,SP,-22.904356478404523,-47.1755015158131,5.0
mc_ID_11920,"Single Male with one child, education: high school degree working as professional",110K+,"Beer and Wine from Alcoholic Beverages department, Ordered Brand : Top Measure",25.1472,23.5482,yes,[],Go For It,Supermarket,"3.24 ,000,000",1.0368 M,1508.0,1887.7,227.8,151.9,350.4623,itajai,Sc,-26.87673954107072,-48.75040324302174,guariba,SP,-21.36235769739203,-48.232975701561735,4.0
mc_ID_11921,"Single Male with one child, education: bachelors degree working as professional",110K+,"Breakfast Foods from Breakfast Foods department, Ordered Brand : Best",10.8002,7.8785,no,"['Video Store', 'Bar For Salad', 'Coffee Bar', 'Ready Food', 'Florist']",Dimes Off,Deluxe,5.91 M,2.364 M,2038.11,2841.35,483.98,322.27,550.6144,FEIRA 	DE 	SANTANA,BA,measure: -12.258025438253734,-38.9416232828207,umuarama,PR,-23.748416432474365,,5.0
mc_ID_11922,"Single Female with four children, education: bachelors degree working as professional",$50K+,"Specialty from Carousel department, Ordered Brand : Prelude",31.2522,28.3451,yes,"['Video Store', 'Coffee Bar', 'Florist', 'Ready Food', 'Bar For Salad']",Pick Your Savings,dEluXe,6.9 M,2.277 M,2038.11,2842.38,481.98,320.11,739.4174,osasco,SP,-23.530733634456787,-46.80171451027177,sao jose do rio preto,SP,-20.80243626346376,measure: -49.39562406741489,5.0
mc_ID_11925,"Single Female with one child, education: bachelors degree working as management",$50K+,"Dairy from Dairy department, Ordered Brand : Club",measure: 27.3275,24.275,yes,['Florist'],Big Time Discounts, Supermarket,7.22 M,3.61 M,1320.15,2195.04,525.32,348.07,765.7243,sao paulo,SP_,data: -23.657594422076475,amount: -46.6989063034577,santo andre,sp,-23.665703457960586,-46.51808196779969,3.0
mc_ID_11926,"Single Female with No children, education: graduate degree working as professional",70000,"Meat from Deli department, Ordered Brand : Red Spade",19.1874,17.5885,yes,"['Ready Food', 'Bar For Salad']",Price Destroyers,Supermarket,4.83 M,1.5939 M,2263.62,3686.39,853.22,568.36,601.7115,araucaria,PR,-25.580265224514296,-49.403427480350565,	sao paulo,SP,-23.539494799586286,-46.63284391414975,2.0
mc_ID_11928,"Single Male with two children, education: bachelors degree working as professional",50000,"Candy from Snacks department, Ordered Brand : Atomic",,8.4018,yes,"['Coffee Bar', 'Florist', 'Ready Food', 'Bar For Salad']",Dollar Days,DELUXE,6.32 M,2.9704 M,2058.04,3145.51,654.13,436.09,725.9763,joao pess0a,PB,-7.101960317242725,-34.84236014348782,Maua,_SP,data: -23.656676689970634,-46.44420755410021,5.0
mc_ID_11929,"Single Male with four children, education: high school degree working as manual",30k,"Frozen Entrees from Frozen Foods department, Ordered Brand : Golden",26.6008,23.5482,yes,[],Weekend Discount,Mid-Size,"1.77 ,000,000",0.6018 M,,3391.8,783.64,520.66,577.7581,sao goncalo,rj,-22.8494025,-42.99899624999999,sao paulo,SP,val: -23.5259237463212,-46.642131776011375,4.0
mc_ID_11930,"Single Male with three kidren, education: partial HS working as professional",90 Thousand,"Jams and Jellies from Baking Goods department, Ordered Brand : CDR",-0.1,-999.0,yes,[],,,1.34 M,0.5628 M,2049.72,2816.83,457.36,303.22,708.665,PRAIA GRANDE,SP,amount: -24.011288218359883,val: -46.41873374429398,SaO PAuLo,SP,-23.528716250620374,-46.62026515958797,val: 5.0
mc_ID_11931,"Single Male with four children, education: partial college working as clerical",50K+,"Hygiene from Health and Hygiene department, Ordered Brand : Bird Call",24.7111,23.2575,no,['Coffee Bar'],Full Free,small grocery,"1.4 ,000,000",0.504 M,1394.66,2285.14,534.29,356.19,320.4421,va1inhos,SP,-22.983092033963143,-46.99579127087601,ibitinga,5P,-21.7664768468313,-48.83154737836604,3.0
mc_ID_11932,"Married Male with five children, education: high school degree working as manual",30K+,"Canned Soup from Canned Foods department, Ordered Brand : Blue Label",23.9843,19.6235,yes,"['Florist', 'Coffee Bar', 'Ready Food', 'Bar For Salad']",Two Day Sale,Deluxe,2.64 M,0.8184 M,2055.29,3142.51,654.13,436.09,542.0895,casa branca,SP,-21.77858754402216,-47.09381672518129,pato branco,PR,-26.23309163375265,-52.67355012674504,amount: 5.0
mc_ID_11933,"Married Female with one child, education: bachelors degree working as professional",50K+,"Fruit from Produce department, Ordered Brand : Hermanos",30.9615,,no,"['Florist', 'Coffee Bar', 'Ready Food', 'Bar For Salad']",GLD,Gourmet,€8.5M,3.3066 M,1564.86,2202.41,385.45,,396.2248,sao carlos,SP,-22.014946613653425,-47.90148946378896,IBITINGA,5P,-21.7664768468313,-48.83154737836604,5.0
mc_ID_11934,unknown,600+ monthly,"Canned Shrimp from Canned Foods department, Ordered Brand : Bravo",-15.6988,11.338,no,"['Ready Food', 'Bar For Salad']",Mystery Sale,5upermarket,"8.68 ,000,000",2.604 M,,3687.24,855.22,569.1,444.3931,marilia,sP ,-22.24115189119989,-49.93583163523764,Pedreira,SP,val: -22.73824150585765,-46.8958585777586,5.0
,"Married_Male_with_two_children,_education:_partial_college_working_as_management",90K+,"Paper Products from Household department, Ordered Brand : Sunset",11.6287,10.1752,no,"['Video Store', 'Ready Food', 'Coffee Bar', 'Florist', 'Bar For Salad']",Go For It,Deluxe,"2.58 ,000,000",0.7998 M,2038.11,2841.35,481.98,,455.3761,ARTUR NOGUAIRA,SP,-22.559120480675748,-47.16516839542564,sao paulo,SP_,-23.63665699295384,-46.69477973651988,measure: 4.0
mc_ID_11937,"Single Male with No children, education: partial high school working as professional",150K+,"Breakfast Foods from Frozen Foods department, Ordered Brand : Imagine",22.24,,yes,"['Coffee Bar', 'Florist', 'Ready Food', 'Video Store', 'Bar For Salad']",Shelf Clearing Days,,4.76 M,1.9516 M,1871.16,2861.29,593.93,395.95,516.7763,JANDIRA,SP,amount: -23.55566231638577,val: -46.89595792306139,sOrOCABa,SP,-23.442173999999994,-47.45493449999999,4.0
mc_ID_11938,"Married Male with three children, education: bachelors degree working as management",70K+,"Eggs from Eggs department, Ordered Brand : Jumbo",11.0764,,yes,[],Three for One,mID-SIZe,"8.91 ,000,000",3.0294 M,2085.67,3391.8,783.64,522.49,570.5407,taubate,Sp,-23.01083014736553,-45.55103935263445,Sao Jose Dos Campos,SP,amount: -23.20178111878932,-45.89567007799064,5.0
mc_ID_11940,"Single Female with five children, education: high school degree working as manual",360+ monthly,"Electrical from Household department, Ordered Brand : High Quality",28.0543,26.4554,yes,"['Video Store', 'Ready Food', 'Bar For Salad', 'Coffee Bar', 'Florist']",Money Savers,De1Uxe,9.39 M,4.1316 M,1871.16,2861.13,595.93,395.95,343.611,sao paulo,5p,measure: -23.595156305009034,-46.67617027782903,sao paulo,SP,-23.47666615958798,-46.68147008895491,5.0
mc_ID_11941,"Single Female with one child, education: bachelors degree working as professional",$50K+,"Snack Foods from Snack Foods department, Ordered Brand : Fort West",15.99 kg,14.5359,yes,[],Price Slashers,$upermarket,$6.39 M,2.7477 M,1624.37,2191.86,341.05,227.33,val: 277.0331,Hortolandia,5P,-22.904356478404523,-47.1755015158131,ITAQUAQUECETUBA,SP,-23.48262344063541,-46.37448952833195,1.0
mc_ID_11942,"Married Female with No children, education: partial high school working as skilled manual",30k,"Pain Relievers from Health and Hygiene department, Ordered Brand : Consolidated",14.5359,11.6287,yes,[],Big Time Discounts,Supermarket,$15.92 M,6.6864 M,2049.72,2811.82,457.36,303.01,310.662,belo horizonte,MG,-19.803895418806704,-43.962298019158574,IBITINGA,SP,val: -21.7664768468313,-48.83154737836604,3.0
mc_ID_11943,"Single Male with two children, education: high school degree working as skilled manual",30K+,"Vegetables from Frozen Foods department, Ordered Brand : PigTail",val: 14.3034,11.3962,yes,"['Florist', 'Ready Food', 'Coffee Bar', 'Video Store', 'Bar For Salad']",Sale : Double Down,Deluxe,4.98 M,1.992 M,1734.5,2572.86,503.07,335.38,265.6317,JUNDIAI,SP,-23.15231078798525,-46.86832140856358,Ni1OPoLIs,RJ,-22.800936387437307,-43.42486085339982,100%
mc_ID_11944,"Married Male with two children, education: high school degree working as skilled manual",30K+,"Meat from Deli department, Ordered Brand : American",28.9265,27.3275,no,"['Coffee Bar', 'Ready Food', 'Florist', 'Bar For Salad', 'Video Store']",Tip Top Savings,Deluxe,10.08 M,3.6288 M,1732.36,2575.19,503.07,335.38,287.127,neropolis,GO,-16.408651554066854,-49.214304,ribeirao preto,SP,-21.185944576067463,-47.81498292186677,Rating: 4.0
mc_ID_11945,"Married Female with No children, education: bachelors degree working as professional",70K+,"Fruit from Produce department, Ordered Brand : High Top",27.909,26.4554,yes,"['Bar For Salad', 'Ready Food']",Green Light Special,Supermarket,5.01 M,1.503 M,2265.9,3690.35,853.22,568.75,643.3946,Sao Paulo,SP,-23.46016520927345,-46.65066418373822,sao paulo,5P,-23.56753031883281,-46.51205478799173,3.0
mc_ID_11946,"Married Male with three children, education: bachelors degree working as management",70K+,"Bathroom Products from Household department, Ordered Brand : Cormorant",13.1114,10.2042,yes,[],Full Free,Mid-Size,9.36 M,2.9952 M,2088.26,3390.6,783.64,523.44,778.5901,Sao Luis,MA,amount: -2.5354030444053475,-44.32902966902305,salto,SP,data: -23.20591698084141,-47.307845865803,5.0
mc_ID_11949,"Married Female with four children, education: bachelors degree working as professional",30k,"Hot Beverages from Beverages department, Ordered Brand : Landslide",19.3328,14.972,no,"['Bar For Salad', 'Ready Food', 'Coffee Bar', 'Florist']",Weekend Discount,Gourmet,5.56 M,2.3352 M,1564.86,2207.28,385.45,256.97,470.177,SAO JOAO DA BOA VISTA,SP,-21.97841480270819,-46.79561480625737,Sao Paulo,_SP,-23.693985995008337,-46.70188324132953,5.0
mc_ID_11951,"Single Female with three children, education: partial high school working as skilled manual",10K+ annually,"Electrical from Household department, Ordered Brand : High Quality",,9.4047,no,"['Bar For Salad', 'Ready Food']",Best Savings,Supermarket,$9.72 M,4.7628 M,2448.37,3235.85,470.27,313.71,576.1891,sao jose dos campos,SP,-23.15960926262757,-45.90885480860288,ribeirao preto,	SP,-21.185944576067463,-47.81498292186677,5.0
mc_ID_11952,"Single Female with three children, education: Bachelors degree working as management",50K+,"Vegetables from Canned Foods department, Ordered Brand : Better",26.0193,,no,[],Price Winners,sUpeRMArKET,5.28 M,2.376 M,2049.2,2810.45,457.36,304.91,497.9483,balsas,ma,-7.511492507642972,-46.04703653821487,NITEROI,RJ ,-22.96338484831568,val: -43.03302455048608,5.0
mc_ID_11953,"Married Female with four children, education: bachelors degree working as professional",70K+,"Jams and Jellies from Baking Goods department, Ordered Brand : Plato",13.1114,8.7506,no,"['Bar For Salad', 'Ready Food']",Roller Savings (High) ,Supermarket,8.25 M,2.97 M,2265.18,3687.88,853.22,569.32,356.4245,mesquita,RJ,-22.77294569653941,-43.43711863789617,ribeirao preto ,SP,-21.17121748495008,-47.81941847157649,2.0
mc_ID_11957,"Married Male with four children, education: partial high school working as skilled manual",10K+,"Vegetables from Produce department, Ordered Brand : Tell Tale",measure: 13.1114,8.7506,yes,[],Super Wallet Savers,Supermarket,$5.79 M,2.4897 M,1508.81,1883.27,227.8,153.35,733.1937,sao luiz gonzaga,Rs,-28.41239104550744,-54.96008333012874,itaquaquecetuba_,SP,-23.48262344063541,-46.37448952833195,data: 3.0
mc_ID_11958,"married male with two children, education: partial high school working as skilled manual",120+ monthly,"Snack Foods from Snack Foods department, Ordered Brand : Nationeel",-13.9981,11.0909,yes,[],Coupon Spectacular,Mid-Size,8.37 M,3.9339 M,2085.67,3391.8,783.64,522.49,658.0909,sao paulo,SP,data: -23.58844697668647,-46.6399644096601,sa0 paulo,$P,-23.48535959449485,-46.624283978908174,measure: 5.0
mc_ID_11960,"Single Male with two children, education: bachelors degree working as professional",70K+,"Dairy from Dairy department, Ordered Brand : Gorilla",-1.0,9.9571,yes,"['Ready Food', 'Bar For Salad', 'Coffee Bar', 'Florist', 'Video Store']",Save Price,Gourmet,9.87 M,3.3558 M,1424.85,2197.89,465.54,309.61,670.486,mesquita,rj,-22.778269191407933,-43.40062698708623,IPiRA,sp,-12.157899638207386,-39.7404365008309,5.0
mc_ID_11961,"Single Male with one child, education: bachelors degree working as professional",50K or more,"Frozen Desserts from Frozen Foods department, Ordered Brand : Golden",27.6183,23.2575,no,[],Super Duper Savers,Supermarket,"11.85 ,000,000",3.792 M,2049.72,2811.99,457.36,303.26,527.7593,Sao Paulo_,Sp,-23.56336298733478,measure: -46.4596838214109,saNTO AnDRE,SP,-23.665703457960586,-46.51808196779969,2.0
mc_ID_11962,"Single Male with five children, education: partial high school working as skilled manual",10K+,"Vegetables from Canned Foods department, Ordered Brand : Blue Label",21.8039,20.3503,no,['Coffee Bar'],Double Your Savings,_Supermarket,9.16 M,4.3052 M,1236.07,1969.61,440.92,293.95,data: 493.8689,icem,SP,-20.340523392415125,-49.19599185478212,sao paulo, Sp ,-23.575745041924048,measure: -46.74085825118136,5.0
mc_ID_11964,"Married Male with five children, education: graduate degree working as professional",70K+,"Pure Juice Beverages from Beverages department, Ordered Brand : Fabulous",24.5657,20.0596,no,"['Coffee Bar', 'Florist', 'Video Store', 'Bar For Salad', 'Ready Food']",Price Cutters,Guurmet,8.88 M,3.4632 M,1424.85,2200.69,467.54,310.3,675.716,sao paulo,SP,To Be Determined,-46.67613296863638,	SAO PAULO,SP,-23.491089052455425,-46.5850818805182,5.0
mc_ID_11966,"Single Female with four kids, education: bachelors degree working as professional",50K+,"Snack Foods from Snack Foods department, Ordered Brand : Fast",,,yes,"['Bar For Salad', 'Ready Food', 'Video Store', 'Coffee Bar', 'Florist']",Bag Stuffer,,9.63 M,3.6594 M,1734.5,2572.86,505.07,335.38,662.2226,virginopolis, MG ,-18.81807428213953,-42.70458448201647,ibitinga, SP,-21.7664768468313,-48.83154737836604,1.0
mc_ID_11967,"Single Male with four children, education: partial High School working as manual",30K+,"Baking Goods from Baking Goods department, Ordered Brand : Super",,,no,"['Florist', 'Coffee Bar', 'Bar For Salad', 'Video Store', 'Ready Food']",,,4.8 M,2.112 M,1734.5,2569.52,503.07,335.95,662.2226,ibiaca,RS,-28.05694650926311,-51.85682112039228,sao paulo,SP,-23.52399579739165,-46.51294318734492,measure: 3.0
mc_ID_11969,"Single Female with four children, education: bachelors degree working as professional",70 Thousand,"Canned Oysters from Canned Foods department, Ordered Brand : Just Right",21.5132,18.606,no,[],You Save Days,Supermarket,€3.4M,1.9698 M,1508.0,1884.77,227.8,152.53,amount: 565.9906,SAO VICENTE,sp,-23.97242519856393,-46.371264531333615,5ao paulo,SP,-23.51517733749783,-46.50126713849616,5.0
mc_ID_11972,"Married Female with two children, education: high school degree working as skilled manual",30K+,"Snack Foods from Snack Foods department, Ordered Brand : Fast",27.0368,24.1296,yes,"['Coffee Bar', 'Bar For Salad', 'Ready Food', 'Florist', 'Video Store']",Shelf Emptiers,goUrmET,1.1 M,0.363 M,1422.58,2200.69,465.54,310.3,616.4078,sao paulo,Sp,-23.6928580013246,-46.63964126947597,"SAO pAULO
",sp,amount: -23.51674732944774,-46.54818243075192,5.0
mc_ID_11973,"single female with one child, education: bachelors degree working as management",70 Thousand,"Side Dishes from Deli department, Ordered Brand : Cutting Edge",12.3119,10.8583,yes,['Coffee Bar'],Double Your Savings,Supermarket,2.66 M,0.8778 M,1236.07,1970.94,440.92,293.0,493.8689,sao paulo,SP,-23.50399490536093,-46.5946382411853,SALTO,SP,-23.20591698084141,-47.307845865803,3.0
mc_ID_11974,"SINGLE MALE WITH THREE CHILDREN, EDUCATION: BACHELORS DEGREE WORKING AS PROFESSIONAL",50k,"Magazines from Periodicals department, Ordered Brand : Robust",val: 16.2802,,yes,"['Ready Food', 'Bar For Salad']",Super Duper Savers,,4.94 M,1.8772 M,2266.97,,853.22,568.75,677.285,Niquelandia,GO,-14.459445822167028,-48.45623655811772,rio de janeiro,RJ,data: -22.92931946221692,-43.23596118471042,4.0
mc_ID_11975,"Single Male with No children, education: bachelors degree working as professional",50K+,"Drinks from Beverages department, Ordered Brand : Excellent",13.4603,10.5531,no,[],Sales Days,Supermarket,"3.7 ,000,000",-999,,2196.63,341.05,227.33,amount: 743.1307,sao paulo,5p,-23.49313264946043,-46.71915699194992,maua,Sp,-23.68011442853022,-46.4524537436668,val: 5.0
mc_ID_11976,"Single Male with No children, education: bachelors degree working as professional",50K+,"Snack Foods from Snack Foods department, Ordered Brand : Best Choice",27.0368,24.1296,yes,[],Weekend Discount,supermarket,€6.3M,2.952 M,,,,151.9,measure: 735.1811,franca,SP,measure: -20.564239500000003,-47.3550705,ITAQUAQUECETUBA,SP,-23.48262344063541,-46.37448952833195,2.0
mc_ID_11977,"Single Male with two children, education: partial high school working as manual",€8K+,"Vegetables from Produce department, Ordered Brand : Hermanos",-25.0018,measure: nan,yes,"['Coffee Bar', 'Florist', 'Video Store', 'Bar For Salad', 'Ready Food']",Sale Sale Sale,,7.82 M,3.2844 M,1525.28,2146.57,373.1,248.79,measure: 722.6814,pocos de celdas,mg,-21.79104335195045,-46.56244368105504,borda da mata,MG,-22.264093569966427,-46.15856420525942,4.0
mc_ID_11980,"Single Male with three children, education: partial high school working as manual",10K+,"Breakfast Foods from Frozen Foods department, Ordered Brand : Imagine",24.275,21.3678,yes,"['Video Store', 'Florist', 'Coffee Bar', 'Ready Food', 'Bar For Salad']",Super Duper Savers,Deluxe,3.74 M,1.5708 M,1525.28,2143.15,373.1,Data Missing,318.3501,sAo Paulo,SP,-23.618298375246354,-46.45852502641048,Sao Paulo,5P,-23.56180201082004,data: -46.47968149264242,5.0
mc_ID_11981,"Married Male with three children, education: partial high school working as skilled manual",30K+,"Dairy from Dairy department, Ordered Brand : Carlson",,9.8844,yes,"['Ready Food', 'Florist', 'Coffee Bar', 'Bar For Salad']",Sale : Double Down,Deluxe,2.62 M,1.2052 M,2055.29,3146.74,654.13,436.09,500.7202,adamantina,SP,-21.68804676595129,-51.08242332977711,s@o paulo,SP,-23.63133471752179,data: -46.75945889273972,val: 5.0
mc_ID_11983,"Single Female with one child, education: High School degree working as manual",30K+,"Breakfast Foods from Breakfast Foods department, Ordered Brand : Jeffers",12.937,,yes,"['Florist', 'Video Store', 'Coffee Bar', 'Bar For Salad', 'Ready Food']",Mystery Sale,,4.62 M,2.31 M,,2200.69,465.54,310.3,amount: 360.0332,sao paulo,SP,-23.63133471752179,-46.75945889273972,Sao Paulo,sP,-23.512538179294825,-46.50108112461768,5.0
mc_ID_11985,"Single Male with three children, education: bachelors degree working as management",50K+,"Vegetables from Produce department, Ordered Brand : Tell Tale",13.1114,8.7506,yes,"['Bar For Salad', 'Ready Food']",Three for One,Suparmarket,5.79 M,2.7213 M,2448.37,3229.74,,313.55,656.2604,guarulh0s,SP,-23.44666323980033,-46.411660142102846,campo limpo paulista,SP,amount: -23.20706431353269,-46.760735214610754,5.0
mc_ID_11986,"Married Male with two children, education: graduate degree working as management",€93K+,"Jams and Jellies from Baking Goods department, Ordered Brand : CDR",,5.7272,yes,"['Bar For Salad', 'Ready Food']",,Supermarket,7.95 M,2.385 M,2448.37,3236.25,470.27,314.1,347.1151,petropolis,RJ,amount: -22.533968891214723,-43.2023689893726,jaragua do sul,sC,-26.46850294670808,-49.109883098307336,5.0
mc_ID_11987,"SiNgLe mAlE WiTh tWo cHiLdReN, eDuCaTiOn: PaRtIaL HiGh sChOoL WoRkInG As mAnUaL",€25K+,"Bread from Baked Goods department, Ordered Brand : Great",19.7689,16.8617,yes,"['Coffee Bar', 'Florist', 'Bar For Salad', 'Video Store', 'Ready Food']",Sale Winners,Deluxe,$3.72 M,1.3392 M,1871.16,2857.47,593.93,395.95,519.7574,passo fundo,rs,-28.26109770117858,measure: -52.40767078126318,sao paulo,sp,-23.472335179294816,-46.64636526449883,3.0
mc_ID_11988,"Single Female with one kid, education: high school degree working as manual",30K+,Not Available,9.899,5.5237,no,"['Bar For Salad', 'Florist', 'Ready Food', 'Coffee Bar', 'Video Store']",Lottery Cash Registerion,Deluxe,11.04 M,5.1888 M,1734.5,2575.27,503.07,336.08,313.0678,sao jose dos campos,5P,-23.199327910749645,-45.88679387947946,itaquaquecetuba,SP,-23.48262344063541,-46.37448952833195,3.0
mc_ID_11989,"Single Male with two children, education: bachelors degree working as management",€59K+,"Snack Foods from Snack Foods department, Ordered Brand : Horatio",15.2627,12.3555,no,[],Price Cutters,Mid-Size,7.56 M,2.4192 M,2086.52,3391.8,783.64,522.49,324.7307,belo horizonte,MG,-19.843708202868147,-43.95899630890419,Rio dE janEIro,RJ,-22.83126885651217,-43.34816039829178,5.0
mc_ID_11990,"Married Female with three children, education: partial college working as professional",Income: 130K+,"Specialty from Produce department, Ordered Brand : High Top",-0.1,data: 17.1524,yes,"['Video Store', 'Florist', 'Coffee Bar', 'Bar For Salad', 'Ready Food']",One Day Sale,	Gourmet,10.84 M,3.9024 M,,2202.23,465.54,310.3,449.1524,ribeirao pires,sp,-23.75156370006625,-46.44223090761778,borda da mata,MG,-22.264093569966427,-46.15856420525942,5.0
mc_ID_11991,"Single Female with five children, education: partial high school working as manual",30K+,"Vegetables from Canned Foods department, Ordered Brand : Just Right",22.0946,-999.0,no,"['Bar For Salad', 'Video Store', 'Florist', 'Ready Food', 'Coffee Bar']",You Save Days,,15.32 M,5.2088 M,,2201.51,467.54,312.07,689.3663,caxambu,MG,-21.979959222975943,-44.93164330097004,belo horizoñte,MG,-19.878513898894187,-43.95694702879617,5.0
mc_ID_11992,"Married Male with No childran, education: partial college working as management",30K+,"Hardware from Household department, Ordered Brand : Denny",21.3678,16.8617,no,"['Coffee Bar', 'Ready Food', 'Bar For Salad', 'Florist', 'Video Store']",Green Light Special,Deluxe,9.52 M,3.5224 M,1525.28,2150.47,,248.79,507.9899,alfenas,MG,-21.40864695714521,data: -45.962626833614735,guarulhos,5P,-23.422313378296494,-46.520062240348594,5.0
mc_ID_11993,"Married Female with five children, education: high school degree working as professional",130K+,"Snack Foods from Snack Foods department, Ordered Brand : Fort West",29.2172,-27.7636,no,[],Big Time Discounts,Supermarke7,9.88 M,3.6556 M,2046.95,2811.99,459.36,304.91,310.662,santana de parnaiba,Sp,-23.49413311227142,-46.97080924393411,mogi das cruzes,SP,-23.51937483109403,-46.19269037743349,5.0
mc_ID_11994,"Single Male with No children, education: bachelors degree working as management",50K+,"Dairy from Dairy department, Ordered Brand : Booker",10.8002,6.4249,no,['Coffee Bar'],Savings Galore,Sm4Ll Grocery,$0.67 M,0.2412 M,1426.18,2088.27,398.93,264.85,550.5098,santo andre,SP,-23.66721675288362,-46.49913206319721,SAO PAULO,SP,-23.50097763469062,-46.62712333406575,5.0
mc_ID_11995,"Single Male with four children, education: High School degree working as skilled manual",30K+,"Pure Juice Beverages from Beverages department, Ordered Brand : Fabulous",15.6988,12.7916,no,"['Ready Food', 'Florist', 'Coffee Bar', 'Bar For Salad', 'Video Store']",I Cant Believe It Sale,Deluxe,1.4 M,0.602 M,1731.6,2572.86,503.07,334.6,363.3281,SAOPAULO,_SP,-23.58452319555432,-46.51460627909786,IB1TINGA,sP,-21.7664768468313,-48.83154737836604,3.0
mc_ID_11996,"Married Male with three children, education: bachelors degree working as professional",70 Thousand,"Vegetables from Produce department, Ordered Brand : High Top",19.4781,16.4256,yes,"['Video Store', 'Coffee Bar', 'Ready Food', 'Florist', 'Bar For Salad']",Sale : Double Down,Deluxe,"3.42 ,000,000",1.539 M,1732.48,2572.86,505.07,335.38,amount: 265.6317,sao paulo,sP,-23.56079380099833,-46.49873888718328,maringa,PR,-23.41000679702781,-51.88262571961486,5.0/5.0
mc_ID_11997,"Married Male with one child, education: bachelors degree working as management",90K+,"Frozen Entrees from Frozen Foods department, Ordered Brand : Carrington",13.1696,8.8088,yes,[],Sales Days,Supermarket,7.05 M,3.102 M,1623.48,2191.86,341.05,229.03,£542.49,anapolis, Gu ,-16.327942149486358,amount: -48.93600324439582,sao 	bernardo 	do 	campo,SP,-23.723129438830654,-46.557639356367936,data: 4.0
mc_ID_11999,"Married Female with two children, education: graduate degree working as professional",70K+,"Vegetables from Produce department, Ordered Brand : Ebony",10.8729,,no,[],Best Price Savers,,$4.42 M,1.6354 M,1508.0,1885.05,227.8,151.9,650.4028,regente feijo,sp,-22.21174807842664,-51.30479700254463,sao paulo, sp,-23.59519232500434,-46.53381915834724,5.0
mc_ID_12000,"Single Female with two kids, education: HS degree working as manual",30000,"Snack Foods from Snack Foods department, Ordered Brand : Fort West",28.9265,25.874,yes,"['Ready Food', 'Video Store', 'Florist', 'Coffee Bar', 'Bar For Salad']",Price Cutters,"Gourmat
",1.8 M,0.828 M,1425.49,2205.48,465.54,310.3,675.716,pereiro,CE,-6.050648037721723,-38.46417028725955,Ibitinga,SP,-21.7664768468313,-48.83154737836604,5.0
mc_ID_12003,"Married Female with three children, education: bachelors degree working as professional",70K+ annually,"Jams and Jellies from Baking Goods department, Ordered Brand : BBB Best",29.3626,25.0018,no,['Coffee Bar'],Best Price Savers,small grocery,1.9 M,0.646 M,2069.04,,330.83,220.55,495.2287,muriae,MG,-21.131145000000004,-42.36099306841136,ribeirao preto,SP,-21.197994153181128,-47.779317275572765,5.0
mc_ID_12004,"Married Male with one child, education: high school degree working as skilled manual",€25K+,"Beer and Wine from Alcoholic Beverages department, Ordered Brand : Pearl",14.347,9.9716,yes,[],Sale Winners,Supermarket,$1.71 M,0.8037 M,1508.0,1883.46,227.8,151.9,720.171,CAMOAS,R$,amount: -29.915258224808355,-51.18616902904408,piracicaba,SP,-22.72737479516996,-47.67061025477531,5.0
mc_ID_12007,"Single Male with two children, education: partial high school working as professional",110 Thousand,"Vegetables from Produce department, Ordered Brand : Tell Tale",Not Specified,18.606,yes,"['Ready Food', 'Video Store', 'Coffee Bar', 'Bar For Salad', 'Florist']",Shelf Clearing Days,Gourmet,3.42 M,1.1628 M,1425.65,2195.97,465.54,,533.2508,juiz de fora,MG,-21.745859857608703,-43.36325941895093,rio de janeiro,RJ,-22.93125598447676,-43.17881321481337,4.0
mc_ID_12008,"Married Male with one kid, education: partial high school working as manual",10K+,"Fruit from Produce department, Ordered Brand : Tell Tale",30.5255,27.6183,no,['Coffee Bar'],You Save Days,SmALl groCERY,0.68 M,0.2176 M,1423.37,,400.93,265.98,€423.43,votuporanga,SP,measure: -20.433488753848312,-49.97851439170862,"franca
",sP,-20.53193450696372,-47.399446711253766,5.0
mc_ID_12011,"Married Male with three children, education: partial high school working as skilled manual",$10K+,"Side Dishes from Deli department, Ordered Brand : American",30.0894,27.1822,yes,[],Money Savers,Supermarket,4.65 M,2.139 M,,1889.29,227.8,151.9,val: 277.2423,Santo Andre,SP,val: -23.656293518994904,-46.55412213733605,lauro 	de 	freitas,BA,val: -12.895112589380958,-38.33895999999978,4.0
mc_ID_12013,"Married Male with three children, education: bachelors degree working as professional",70K or more,"Vegetables from Produce department, Ordered Brand : Tri-State",28.4904,27.0368,yes,"['Bar For Salad', 'Coffee Bar', 'Video Store', 'Ready Food', 'Florist']",Bag Stuffer,Deluxe,8.84 M,2.7404 M,1734.5,2569.31,,335.38,662.2226,londrina,PR,-23.326503549252777,-51.122454800161606,americana,SP,-22.737278419931872,-47.31266995989381,5.0
mc_ID_12014,"Single Male with four children, education: bachelors degree working as professional",50K+,"Bread from Baked Goods department, Ordered Brand : Colony",11.2072,8.3,no,['Coffee Bar'],You Save Days,Small Grocery,3.27 M,1.0137 M,1423.37,2092.66,398.93,265.98,498.1575,FRANCA,SP,-20.54822779974972,-47.395897060007975,salto,SP,-23.20591698084141,-47.307845865803,1.0
mc_ID_12015,"Married Male with No children, education: high school degree working as manual",10K or more,"Snack Foods from Snack Foods department, Ordered Brand : Horatio",30.3801,28.7811,yes,"['Florist', 'Coffee Bar', 'Ready Food', 'Bar For Salad']",Super Duper Savers,deluxe,7.08 M,3.0444 M,2055.29,3145.51,656.13,434.95,364.2695,sao paulo,$P,-23.56251992561604,-46.52186953205609,curitiba,pr,-25.46921399278664,-49.29393514695028,5.0
mc_ID_12017,"Married Female with four kids, education: bachelors degree working as professional",50K+,"Vegetables from Produce department, Ordered Brand : Tri-State",23.4028,data: 21.9493,no,"['Florist', 'Coffee Bar', 'Video Store', 'Ready Food', 'Bar For Salad']",GLD,Deluxe ,5.13 M,2.2059 M,1871.16,,593.93,395.95,484.1411,londrina,PR,-23.32532644463037,-51.15843393839796,CAPIVARI,SP ,-23.0122137105142,-47.52203973160603,5.0
mc_ID_12018,"Married Male with one child, education: partial high school working as manual",120+ monthly,"Meat from Frozen Foods department, Ordered Brand : PigTail",12.1375,-1.0,no,"['Ready Food', 'Coffee Bar', 'Bar For Salad', 'Video Store', 'Florist']",You Save Days,Gourmet,7.86 M,3.2226 M,1424.85,,465.54,,689.3663,santos,SP,-23.96112504302036,-46.32316061267247, ribeirao preto,Sp,-21.17121748495008,measure: -47.81941847157649,5.0
mc_ID_12019,SINGLE FEMALE WITH TWO CHILDREN; EDUCATION: PARTIAL HIGH SCHOOL WORKING AS SKILLED MANUAL,10K+ annually,"Dairy from Dairy department, Ordered Brand : Club",data: 24.7111,21.8039,no,[],Promo Big,supermarket,13.52 M,6.084 M,2049.72,2811.99,457.36,304.91,515.2596,sao paulo,SP ,-23.56810218341981,-46.68548426098767,ibitinga,"Sp
",-21.7664768468313,val: -48.83154737836604,3.0
mc_ID_12028,"Married Male with four children, education: high school degree working as skilled manual",$30K+,"Fruit from Produce department, Ordered Brand : High Top",###,amount: 15.4081,no,"['Coffee Bar', 'Video Store', 'Florist', 'Ready Food', 'Bar For Salad']",One Day Sale,Deluxa,6.4 M,2.24 M,1734.5,2570.83,503.07,335.38,measure: 689.0525,pontal do parana,PR,-25.621204126016725,-48.42208269355905,sao paU1O,SP,-23.55770667499565,-46.61476439993657,4.0
mc_ID_12030,"Married Male with two children, education: bachelors degree working as professional",50K+,"Snack Foods from Snack Foods department, Ordered Brand : Horatio",18.0246,measure: 14.972,no,[],Go For It,supermarket,3.04 M,1.0944 M,2049.72,2813.22,457.36,304.91,509.6635,belo hurizonte,MG,val: -19.81661762585845,-43.99762518359399,ibitinga,SP,-21.7664768468313,-48.83154737836604,data: nan
mc_ID_12031,"Married Female with four children, education: partial high school working as manual",10000,"Meat from Deli department, Ordered Brand : Cutting Edge",,25.0018,no,"['Florist', 'Coffee Bar', 'Video Store', 'Ready Food', 'Bar For Salad']",,deluxe,6.12 M,2.5092 M,,2844.56,481.98,320.08,data: 739.4174,rio de janelro,RJ,-22.96070967499565,-43.213958465173945,curitiba,PR,-25.397971942264448,val: -49.24103753690352,5.0
mc_ID_12035,"Married Male with three children, education: bachelors degree working as professional",50K+,"Pizza from Frozen Foods department, Ordered Brand : Golden",23.8389,20.7864,yes,"['Ready Food', 'Bar For Salad']",Three for One,Supermarket,3.84 M,1.344 M,2448.37,,470.27,,656.2604,RECIFE,pE,-8.06118170107913,-34.881103586877444,j@u,SP,measure: -22.29164124459334,-48.54989181391441,1.0
mc_ID_12036,"Single Female with No children, education: bachelors degree working as professional",50K+,"Jams and Jellies from Baking Goods department, Ordered Brand : Super",9.7681,8.3,no,"['Bar For Salad', 'Florist', 'Ready Food', 'Coffee Bar', 'Video Store']",Roller Savings (High) ,Deluxe,"10.17 ,000,000",4.9833 M,1734.5,2572.86,503.07,335.38,440.1568,sao paulo,_SP,-23.47001485567546,measure: -46.63484579309249,maua,SP,val: -23.68011442853022,-46.4524537436668,data: 4.0
mc_ID_12038,"Single Female with one child, education: partial high school working as manual",30K+,"Jams and Jellies from Baking Goods department, Ordered Brand : BBB Best",measure: 24.7111,,yes,"['Coffee Bar', 'Ready Food', 'Florist', 'Bar For Salad', 'Video Store']",Two for One,,"6.44 ,000,000",2.3828 M,2038.37,2839.72,481.98,321.26,measure: 358.9349,santo antonio do jardim,SP,-22.11666363986587,-46.682531291057856,campimas,SP,val: -22.895876357204664,-47.0791850342778,4.0
mc_ID_12039,"Single Male with four children, education: bachelors degree working as professional",70 Thousand,"Hygiene from Health and Hygiene department, Ordered Brand : Consolidated",16.8617,data: 13.9545,yes,"['Video Store', 'Coffee Bar', 'Florist', 'Ready Food', 'Bar For Salad']",Sale : Double Down,DELUX3,2.56 M,0.9728 M,,2150.79,373.1,248.79,746.3733,Sao Paulo,Sp,-23.56613158673322,-46.40933117430316,curitiba,PR,-25.48015350874257,measure: -49.29687243020366,5.0
mc_ID_12040,"Married Female with two children, education: high school degree working as skilled manual",10 Thousand,"Vegetables from Canned Foods department, Ordered Brand : Just Right",22.0946,19.0421,no,"['Coffee Bar', 'Bar For Salad', 'Florist', 'Video Store', 'Ready Food']",Dimes Off,Deluxe,19.15 M,6.894 M,1871.16,2863.14,593.93,395.95,474.7271,meridiano,SP,-20.35657483326317,-50.1774619174735,sao paulo,SP,-23.601764863046306,-46.54785125728302,4.0
mc_ID_12041,"Married Male with four children, education: high school degree working as manual",$30K+,"Baking Goods from Baking Goods department, Ordered Brand : Landslide",28.0543,23.5482,yes,['Florist'],Sale : Double Down,Supermarket,$8.4 M,3.024 M,1320.15,2188.92,523.32,,292.6708,samtos,SP,-23.9678895545329,-46.34412123980033,ribeirao das neves,mg,-19.76655607171568,-44.00162722365764,4.0
mc_ID_12042,"Single Male with two children, education: partial college working as management",30K+,"Canned Soup from Canned Foods department, Ordered Brand : Better",12.123,10.6694,yes,[],Budget Bargains,_5upermarket,"2.25 ,000,000",0.9675 M,2052.29,2816.92,457.36,,708.665,RIO DE JANEIRO,Rj,-22.984848450458767,-43.20073414542106,Rio De Janeiro,RJ,-22.93125598447676,-43.17881321481337,5.0
mc_ID_12044,"single female with three children, education: graduate degree working as professional",70K+,"Frozen Entrees from Frozen Foods department, Ordered Brand : PigTail",31.8337,28.7811,yes,"['Video Store', 'Coffee Bar', 'Florist', 'Bar For Salad', 'Ready Food']",Price Destroyers,	DELUXE,5.82 M,2.2698 M,2038.11,,481.98,321.26,777.2826,curitiba,PR,-25.454342472387303,-49.22258337676727,votuporanga,$p ,-20.405604560394835,-49.99195266803888,4.0
mc_ID_12046,"Single Female with two children, education: partial high school working as manual",10K+,"Fruit from Produce department, Ordered Brand : High Top",17.1524,,no,['Coffee Bar'],Price Smashers,,€3.8M,1.8327 M,1236.07,1973.2,440.92,,722.9429,joao monlevade,MG,-19.83450146867729,val: -43.188507135626296,sao paulo,SP ,-23.4719444074384,-46.59864459256161,4.0
mc_ID_12048,"Married Male with two children, education: bachelors degree working as management",70K+,"Jams and Jellies from Baking Goods department, Ordered Brand : BBB Best",amount: 12.8788,9.9571,yes,"['Ready Food', 'Bar For Salad']",Go For It,Supermarket,€1.4M,0.756 M,2266.24,3686.46,853.22,568.75,553.0202,CAsTAnHal,pa,-1.3019669634735789,-47.91464067152295,ibiting@_,SP,amount: -21.7664768468313,-48.83154737836604,1.0
mc_ID_12049,"Single Female with four children, education: partial college working as professional",Income: 50K+,"Electrical from Household department, Ordered Brand : Cormorant",24.5657,22.9668,yes,"['Coffee Bar', 'Bar For Salad', 'Florist', 'Ready Food']",Saving Days,Gourmet,4.35 M,1.74 M,1561.97,2211.9,385.45,255.21,474.0995,campos dos goytacazes,RJ,-21.77440939174392,measure: -41.31627010619313,rio de janeiro,RJ,-22.93125598447676,data: -43.17881321481337,5.0
mc_ID_12050,"Married Female with three children, education: High School degree working as manual",30k,"Vegetables from Produce department, Ordered Brand : High Top",23.4028,20.4957,no,"['Bar For Salad', 'Coffee Bar', 'Florist', 'Ready Food']",Shelf Emptiers,Gourmet,9.96 M,3.3864 M,1564.86,2207.28,385.45,256.97,amount: 773.0986,candelaria,RS,-29.66987043994991,-52.78968361045696,sao paulo,SP,-23.49517247515727,-46.50119464071786,4.0
mc_ID_12051,Married Male with one child - education: bachelors degree working as professional,150K+,"Bread from Baked Goods department, Ordered Brand : Sphinx",25.874,22.8214,no,"['Florist', 'Ready Food', 'Video Store', 'Coffee Bar', 'Bar For Salad']",Bag Stuffer,Deluxe,5.28 M,1.6896 M,,2572.86,503.07,335.8,662.2226,recife,PE,-8.06375431779098,-34.90148058756994, sao paulo,	$p,data: -23.555682314184303,-46.63309991286275,5.0
mc_ID_12052,"Single Male with three children, education: partial high school working as skilled manual",$10K+,"Hot Beverages from Beverages department, Ordered Brand : BBB Best",24.8564,21.9493,no,"['Florist', 'Video Store', 'Bar For Salad', 'Coffee Bar', 'Ready Food']",One Day Sale,G0URMET,11.48 M,4.2476 M,1424.85,2195.76,465.54,310.4,449.1524,sao paulo,SP,-23.419660725229377,-46.75236755759133,sao paulo ,SP,-23.57282057729816,-46.52329640383172,4.0
mc_ID_12053,"EDUCATION: HIGH SCHOOL DEGREE WORKING AS MANUAL, mARRIED fEMALE WITH ONE CHILD",30K+,"Canned Soup from Canned Foods department, Ordered Brand : Blue Label",13.7801,12.3119,yes,['Coffee Bar'],Coupon Spectacular,Small Grocery_,3.1 M,1.085 M,1392.11,2285.14,534.29,356.19,£321.12,caj4zeiras,Pb,-6.895225938871665,-38.56192119638417,IBITINGA,sp,-21.7664768468313,-48.83154737836604,5.0
mc_ID_12054,"MARRIED MALE WITH ONE CHILD, EDUCATION: PARTIAL HIGH SCHOOL WORKING AS MANUAL",10K+,"Bathroom Products from Health and Hygiene department, Ordered Brand : Consolidated",13.6928,amount: 10.7857,yes,[],Super Savers,SUPeRMaRKeT,2.88 M,1.2384 M,2049.72,2811.99,457.36,304.91,339.8977,rio de janeiro ,RJ,amount: -23.0043086872296,-43.32450783783356,sao paulo,SP ,-23.61424927422236,-46.68844105482136,5.0
mc_ID_12055,"Single Female with three children, education: graduate degree working as professional",110K+,"Bathroom Products from Household department, Ordered Brand : Red Wing",14.4342,,no,"['Video Store', 'Florist', 'Ready Food', 'Coffee Bar', 'Bar For Salad']",Discount Frenzy,,2.49 M,1.245 M,1871.56,2861.13,593.93,394.01,326.352,sorocaba,SP,-23.50986470167544,-47.484121269794414,sao paulo,SP,-23.693985995008337,measure: -46.70188324132953,4.0
mc_ID_12057,"Married Female with one child, education: high school degree working as manual",30k,"Pure Juice Beverages from Beverages department, Ordered Brand : Token",-999.0,25.7286,yes,"['Ready Food', 'Bar For Salad']",,5UpermarkeT,€2.0M,1.053 M,2266.6,3684.34,853.22,567.6,553.0202,GUARULHOS,SP,-23.45730754731953,amount: -46.51325832361937,BELO hORiZoNTE,MG,-19.878513898894187,-43.95694702879617,5.0
mc_ID_12059,"MARRIED FEMALE WITH TWO CHILDRAN, EDUCATION: PARTIAL COLLEGE WORKING AS CLERICAL",30K+,"Dairy from Dairy department, Ordered Brand : Even Better",,21.9493,yes,"['Video Store', 'Coffee Bar', 'Ready Food', 'Bar For Salad', 'Florist']",,Deluxe,5.42 M,1.897 M,,2147.17,,,£551.84,SAO PAULO,$p,measure: -23.588342026102605,-46.61354545697578,poa, SP ,-23.522975748542905,-46.33702048557326,4.0
mc_ID_12060,"Single Female with four children,education: high school degree working as management",110K+,"Candy from Snacks department, Ordered Brand : Musial",-28.6358,24275.00 grams,yes,['Florist'],Pick Your Savings,"Supermarket
",6.3 M,2.835 M,1320.15,2195.05,523.32,348.85,769.6991,SAO JOSE DOS CAMPOS,SP,-23.221431461827063,-45.888163895493165,maringa,PR,-23.41848622413047,-51.92625934548862,3.0
mc_ID_12061,"Married Male with No children, education: partial high school working as manual",10K+,"Fruit from Produce department, Ordered Brand : Ebony",11.7886,-10.3205,no,[],Price Winners,Supermarket,7.35 M,3.1605 M,1625.53,2193.47,343.05,227.35,543.397,pitangueiras,"SP
",val: -21.010986295708047,-48.20869881125268,limeira, 5P ,-22.599254430886607,-47.37980963550319,3.0
mc_ID_12063,"Single Male with four children, education: high school degree working as skilled manual",30K or more,"Vegetables from Produce department, Ordered Brand : Ebony",25.2925,22.24,yes,"['Florist', 'Coffee Bar', 'Bar For Salad', 'Video Store', 'Ready Food']",Sale Winners,DeIUXe,11.88 M,4.9896 M,1872.76,2863.93,593.93,395.95,519.7574,itaquiting4,pa,-7.671350169806433,-35.10569971017287,rio de janeiro,RJ,-22.842290284753936,-43.29762071175495,3.0
mc_ID_12064,"Single Male with No children, education: partial high school working as skilled manual",30K+,"Kitchen Products from Household department, Ordered Brand : Denny",data: 31.2522,28.3451,no,"['Coffee Bar', 'Video Store', 'Ready Food', 'Florist', 'Bar For Salad']",Shelf Clearing Days,Gourmet,1.65 M,0.594 M,1424.85,2200.03,465.54,310.3,533.2508,brasilia,DF,-15.908177109244209,-47.75283734748038,praia grande,Sp,-24.026786758814687,-46.49304889148245,
mc_ID_12065,"Single Male with four children, education: bachelors degree working as professional",50K+,"Plastic Products from Household department, Ordered Brand : Red Wing",,26.31,no,[],, Mid-Size,"7.77 ,000,000",2.4864 M,2082.93,3391.8,783.64,,739.4697,Belo Horizonte,	mg,-19.809042328611024,-43.99006964195861,petropolis,Rj,-22.389386316926604,-43.131794488742194,2.0
mc_ID_12067,"single female with five kidren, education: partial college working as professional",110K+,"Baking Goods from Baking Goods department, Ordered Brand : Super",25.4379,-21.0771,yes,"['Video Store', 'Ready Food', 'Bar For Salad', 'Coffee Bar', 'Florist']",Price Cutters,Deluxe,10.92 M,3.822 M,1525.28,2151.44,373.1,248.79,642.0871,bRASILIA,DF,-16.02294658397918,val: -48.05071815778448,foz do iguacu,PR,-25.548584861815545,-54.58121020316589,4.0
mc_ID_12068,"Single Male with two children, education: bachelors degree working as professional",30K+,"Candy from Snacks department, Ordered Brand : Atomic",15.8442,14.38 kg,yes,"['Bar For Salad', 'Video Store', 'Florist', 'Coffee Bar', 'Ready Food']",Price Slashers,Deluxe,2.7 M,0.891 M,,2570.05,503.07,335.38,282.9953,mendes,rJ,val: -22.525176465431056,-43.74058341826739, PONTA GROSSA ,PR,-25.08190948098565,-50.13386723910784,5.0
mc_ID_12070,"Marriied Male with one child, education: bachelors degree working as management",600+ monthly,"Canned Soup from Canned Foods department, Ordered Brand : Better",13.0823,,yes,[],Budget Bargains,,€2.0M,0.8658 M,1624.0,2193.23,,,623.7298,"aracatuba
",SP,-21.204424026371942,val: -50.47034877768479,sao paulo,SP,-23.746252526227707,amount: -46.677001782820696,5.0
mc_ID_12072,"Single Female with No kids, education: bachelors degree working as professional",50K+,"Decongestants from Health and Hygiene department, Ordered Brand : Faux Products",30.2347,-28.6358,yes,[],Super Duper Savers,Supermarket,4.83 M,1.5456 M,2049.72,2811.99,457.36,,data: 527.7593,Sau Paulo ,SP,-23.424789368085,-46.58054625193439,mogi das cruses,SP,-23.51937483109403,-46.19269037743349,3.0
mc_ID_12074,"Married Female with one child, education: bachelors degree working as management",50k,"Canned Anchovies from Canned Foods department, Ordered Brand : Blue Label",12.0212,9.114,no,[],Two Day Sale,Mid-Size ,5.44 M,1.8496 M,2084.86,3391.84,783.64,522.02,val: 509.0882,pedreira,SP,data: -22.73824150585765,-46.8958585777586,curitiba,PR,-25.508669747227305,-49.33026677895873,5.0
mc_ID_12075,"Married Male with five children, education: partial college working as professional",30K+,"Jams and Jellies from Baking Goods department, Ordered Brand : CDR",31.543,27.1822,yes,[],One Day Sale,Supermarket,$5.9 M,2.596 M,2049.72,2811.99,457.36,304.91,486.7561,S@OPaulo,	sp,-23.62610138412488,-46.63196215751051,Guarulhos_,SP,-23.496488565250488,-46.54671310832206,1.0
mc_ID_12076,"Married Female with four children, education: partial college working as professional",70K+,"Snack Foods from Snack Foods department, Ordered Brand : Fort West",-22.24,data: 17.8792,yes,"['Coffee Bar', 'Bar For Salad', 'Ready Food', 'Florist']",Three for One,Deluxe,€5.9M,2.436 M,2055.29,3145.51,654.13,436.09,640.5181,n1teroi,RJ,-22.896755634456788,-43.09981143435861,ibitinga,$p,-21.7664768468313,-48.83154737836604,5.0
mc_ID_12077,"Single Male with five children, education: high school degree working as manual",Income: 30K+,"Magazines from Periodicals department, Ordered Brand : Robust",,,yes,"['Ready Food', 'Video Store', 'Coffee Bar', 'Florist', 'Bar For Salad']",,,9.88 M,3.1616 M,1524.64,2147.17,373.1,248.79,318.3501,campinas,$P,-22.895876357204664,-47.0791850342778,goiania,GO,-16.69955774566663,-49.31646534449651,5.0
mc_ID_12078,Married Male with five children; education: HS degree working as skilled manual,360+ monthly,"Vegetables from Frozen Foods department, Ordered Brand : Imagine",25.5832,21.2225,yes,"['Ready Food', 'Coffee Bar', 'Bar For Salad', 'Video Store', 'Florist']",Green Light Special,	DELUXE,2.04 M,0.612 M,1525.28,2147.17,373.1,248.79,507.9899,caxias do sul,_RS,-29.11864025625293,-51.12974418075046,sao paulo,Sp,-23.554079433810344,-46.53324185942636,3.0
mc_ID_12079,"Married Female with three children, education: high school degree working as professional",70K+,"Carbonated Beverages from Beverages department, Ordered Brand : Token",23.8389,-1.0,yes,[],Saving Days,Supermarket,€2.4M,0.952 M,1505.41,1885.39,227.8,To Be Determined,619.0228,sao 	pau1o, $P,-23.541807625310188,-46.74545280697093,Sao Paulo,SP,-23.58343069747245,-46.50203424424373,
mc_ID_12081,"Single Female with three children, education: partial high school working as manual",10K+,"Pizza from Frozen Foods department, Ordered Brand : Big Time",10.1461,5.7853,yes,"['Ready Food', 'Bar For Salad']",Three for One,SUPERMARKET,3.75 M,1.3125 M,2268.15,3685.28,853.22,568.95,618.4475,OSA5co,SP,-23.581716041873264,-46.81487809720846,Sao Paulo,sp,-23.54279940605341,-46.595165217323526,1.0
mc_ID_12082,"Single Female with two children, education: high school degree working as skilled manual",50K+,"Plastic Products from Household department, Ordered Brand : Red Wing",15.9895,13.0823,no,"['Ready Food', 'Florist', 'Bar For Salad', 'Coffee Bar']",Two Day Sale,deLUXe,11.25 M,5.175 M,2055.29,3141.45,654.13,437.4,542.0895,sao paulo,sp,-23.56490513488948,val: -46.56772961365344,guarulho$,SP,-23.422313378296494,data: -46.520062240348594,5.0
mc_ID_12084,"Married Male with three children, education: partial high school working as manual",10K+ annually,"Bread from Baked Goods department, Ordered Brand : Sphinx",23.2575,,yes,['Coffee Bar'],Weekend Discount,SUpERMarkeT,9.15 M,3.477 M,1236.07,1968.91,440.92,293.91,364.1649,nova iguacu,RJ,-22.709328438971543,-43.461048749309306,belo horizonte,MG,-19.809042328611024,-43.99006964195861,5.0
mc_ID_12085,"Married Female with two children, education: high school degree working as skilled manual",30K+,"Vegetables from Frozen Foods department, Ordered Brand : Carrington",17.2978,14.376,no,"['Ready Food', 'Coffee Bar', 'Video Store', 'Bar For Salad', 'Florist']",Sales Days,Deluxe,3.2 M,1.184 M,1871.16,2863.04,593.93,395.95,608.772,sao paulo,SP,-23.491899953372947,-46.76073601748513,sao paulo,SP,-23.554079433810344,-46.53324185942636,amount: 5.0
mc_ID_12087,"Single Male with two children, education: partial high school working as manual",10K+,"Snack Foods from Snack Foods department, Ordered Brand : Horatio",30.3801,-28.7811,yes,['Coffee Bar'],Best Savings,Supermarket,$3.54 M,1.0974 M,1236.07,1970.94,440.92,293.95,val: 596.2723,piraju,$p,-23.200603133077674,-49.38191047731838,maringa,PR,data: -23.41848622413047,-51.92625934548862,5.0
mc_ID_12088,"Single Female with four children, education: partial high school working as professional",90K+,"Beer and Wine from Alcoholic Beverages department, Ordered Brand : Good",amount: 15.2627,27.24 lbs,no,[],Save Price,SUPERMARKET,5.68 M,1.9312 M,1508.0,1885.71,,151.9,325.6721,Jaci,5p,-20.889600826708687,-49.57165655226015,s@nto andre,SP,-23.665703457960586,amount: -46.51808196779969,5.0
mc_ID_12089,"Single Male with two children, education: partial high school working as management",90K+,"Fruit from Produce department, Ordered Brand : Tell Tale",15.9895,14.5359,yes,"['Bar For Salad', 'Coffee Bar', 'Ready Food', 'Florist']",Weekend Discount,Deluxe,2.32 M,0.812 M,2055.29,3145.51,,,382.0515,mairipora,5p,-23.32358162262788,-46.571516434161296,rolandia,PR,-23.31259824896755,-51.36894941889966,5.0
